{'name': '万福日式炭火烧肉', 'id': 169257045, 'comments': 53, 'price': 127.0, 'star': 4.4, 'type': '日式烧烤/烤肉', 'tx_lng': 119.30676, 'tx_lat': 26.097963, 'area': '温泉公园/福州广场', 'addr': '鼓楼区五四路金龙大厦停车场入口', 'logo': 'http://p0.meituan.net/180.180/deal/d3908f2a0cd2c0210ab7b273cf28f45a164467.jpg'}
{'name': '华莱士（玉融店）', 'id': 41017582, 'comments': 1818, 'price': 21.0, 'star': 4.4, 'type': '汉堡', 'tx_lng': 119.31446, 'tx_lat': 26.077804, 'area': '正祥中心', 'addr': '鼓楼区古田支路66号玉融花园旁（老依姆旁）', 'logo': 'http://p0.meituan.net/w.h/deal/__48514320__3813181.jpg'}
{'name': '正新鸡排（福新路店）', 'id': 153923823, 'comments': 899, 'price': 16.0, 'star': 5.0, 'type': '小吃快餐', 'tx_lng': 119.314107, 'tx_lat': 26.08038, 'area': '东街口', 'addr': '鼓楼区水部街道福新路135号', 'logo': 'http://p1.meituan.net/w.h/merchantpic/9b14258505aba493d45fe73849c0734220030.png'}
{'name': 'ASH BAR火山灰（三坊七巷店）', 'id': 159793092, 'comments': 152, 'price': 97.0, 'star': 3.7, 'type': '烧烤', 'tx_lng': 119.296765, 'tx_lat': 26.07935, 'area': '东街口/三坊七巷', 'addr': '鼓楼区光禄坊25号（南街街道营房里6号）', 'logo': 'http://p0.meituan.net/180.180/deal/3f6a9036770c39f420409f545baa7e4467985.jpg'}
{'name': '周麻婆（东水路店）', 'id': 1543208, 'comments': 187, 'price': 34.0, 'star': 4.6, 'type': '川菜', 'tx_lng': 119.315079, 'tx_lat': 26.084697, 'area': '东街口', 'addr': '鼓楼区东水路60-3号（旧国税局旁）', 'logo': 'http://p0.meituan.net/w.h/mogu/9b6a107f407b09c4ee839b234d40f4d698817.jpg'}
{'name': '豪客来牛排（福新中路店）', 'id': 834746, 'comments': 851, 'price': 55.0, 'star': 3.7, 'type': '牛排', 'tx_lng': 119.326026, 'tx_lat': 26.081, 'area': '五一广场/古田路', 'addr': '鼓楼区福新中路99号景盛大厦1楼（家乐福对面）', 'logo': 'https://img.meituan.net/w.h/msmerchant/3e66b8a6506c694c98b5c7886bb771d137692.jpg'}
{'name': '炉冠一铁板烧', 'id': 163110597, 'comments': 18, 'price': 434.0, 'star': 4.2, 'type': '日式铁板烧', 'tx_lng': 119.309557, 'tx_lat': 26.086623, 'area': '蒙古营', 'addr': '鼓楼区东大路1号君悦大酒店7楼', 'logo': 'http://p1.meituan.net/180.180/deal/56f45e4c2dd889f0ad13990090a7e3d553923.jpg'}
{'name': '鱼旨寿司（大洋天地正大店）', 'id': 1473671, 'comments': 70, 'price': 71.0, 'star': 4.6, 'type': '日式寿司', 'tx_lng': 119.310315, 'tx_lat': 26.075325, 'area': '五一广场/古田路', 'addr': '鼓楼区五一中路18号正大广场1-5层大洋天地1层', 'logo': 'http://p0.meituan.net/w.h/poi/b87fb9b6f0b27d8114e68cec4f685af8237402.jpg'}
{'name': '必胜客（先施店）', 'id': 830029, 'comments': 0, 'price': 63.0, 'star': 4.0, 'type': '披萨', 'tx_lng': 119.310533, 'tx_lat': 26.076833, 'area': '五一广场/古田路', 'addr': '鼓楼区五一北路188号先施时尚中心一层', 'logo': 'https://img.meituan.net/w.h/msmerchant/c841b54d6558a46a67087aa0abca23d52993992.jpg'}
{'name': '榕腾谷·日本料理（三坊七巷店）', 'id': 169271136, 'comments': 35, 'price': 56.0, 'star': 4.0, 'type': '日式快餐', 'tx_lng': 119.29789, 'tx_lat': 26.078741, 'area': '东街口/三坊七巷', 'addr': '鼓楼区澳门路29号（林则徐纪念馆正对面）', 'logo': 'https://p0.meituan.net/180.180/mogu/b23167ebbf231bbf9d5ef7ec9dee075d109259.jpg'}
{'name': '夏宫餐厅（香格里拉大酒店）', 'id': 6568951, 'comments': 4584, 'price': 156.0, 'star': 5.0, 'type': '广州菜', 'tx_lng': 119.306017, 'tx_lat': 26.074157, 'area': '五一广场/古田路', 'addr': '鼓楼区新权南路9号香格里拉大酒店二层\xa0', 'logo': 'https://img.meituan.net/w.h/msmerchant/4f258189a7af66e2974d252e87e95eb556254.jpg'}
{'name': '美德园中西自助餐厅', 'id': 3278783, 'comments': 4029, 'price': 22.0, 'star': 4.3, 'type': '综合自助', 'tx_lng': 119.303507, 'tx_lat': 26.073705, 'area': '五一广场/古田路', 'addr': '鼓楼区八一七中路103号顺丰楼4层（福州大饭店西侧）', 'logo': 'http://p0.meituan.net/w.h/deal/__29903712__6574455.jpg'}
{'name': '大宅门火锅（三坊七巷店）', 'id': 178067925, 'comments': 86, 'price': 124.0, 'star': 3.0, 'type': '四川火锅', 'tx_lng': 119.295496, 'tx_lat': 26.079566, 'area': '东街口/三坊七巷', 'addr': '鼓楼区光禄坊38号', 'logo': 'https://img.meituan.net/180.180/msmerchant/93ecd930eaddb31fa53b088d6317fcda3437742.jpg'}
{'name': '汕头八合里海记牛肉店（金润店）', 'id': 159521629, 'comments': 347, 'price': 87.0, 'star': 4.4, 'type': '牛肉火锅', 'tx_lng': 119.31158, 'tx_lat': 26.07586, 'area': '五一广场/古田路', 'addr': '鼓楼区五一中路与古田路交叉路口金润大厦一层', 'logo': 'https://img.meituan.net/w.h/msmerchant/969876873aa2501d127fcd837b94122192412.jpg'}
{'name': '鲜丰水果（六一路店）', 'id': 169411436, 'comments': 0, 'price': 25.0, 'star': 3.9, 'type': '水果', 'tx_lng': 119.318215, 'tx_lat': 26.077933, 'area': '五一广场/古田路', 'addr': '鼓楼区水部街道古田支路176号中城都市花园2#3#7#楼连接层一层28号店面', 'logo': 'http://p0.meituan.net/w.h/scarlett/1e9c3bc30a688b063c0fc0cda615154112408.jpg'}
{'name': '蒸有名', 'id': 150336773, 'comments': 135, 'price': 68.0, 'star': 3.7, 'type': '福州菜', 'tx_lng': 119.292707, 'tx_lat': 26.093526, 'area': '左海/西湖公园', 'addr': '鼓楼区湖滨路138号西湖花园碧波楼、翠薇楼连接体1层2-2商场-1号', 'logo': 'http://p1.meituan.net/180.180/deal/dc2ecd328e23018171e256aeb3e085141796735.jpg'}
{'name': '渝跃龙门·重庆火锅', 'id': 182597255, 'comments': 9, 'price': 112.0, 'star': 4.0, 'type': '重庆火锅', 'tx_lng': 119.318373, 'tx_lat': 26.076186, 'area': '五一广场/古田路', 'addr': '鼓楼区古田路177号柏联时代广场2F', 'logo': 'https://img.meituan.net/w.h/msmerchant/131e657c81fb68b88fa46424b517501871255.jpg'}
{'name': '韩香馆（香格里拉大酒店）', 'id': 4511417, 'comments': 580, 'price': 115.0, 'star': 5.0, 'type': '韩国菜', 'tx_lng': 119.306537, 'tx_lat': 26.074491, 'area': '五一广场/古田路', 'addr': '鼓楼区新权南路9号香格里拉酒店1楼（近五一广场）', 'logo': 'https://img.meituan.net/w.h/msmerchant/36e1a3848835010d31c591005997710645156.jpg'}
{'name': '尚膳鼎.顺德民间菜（北梦山路店）', 'id': 51201172, 'comments': 107, 'price': 86.0, 'star': 3.3, 'type': '顺德菜', 'tx_lng': 119.28344, 'tx_lat': 26.08942, 'area': '左海/西湖公园', 'addr': '鼓楼区鼓西街道西环北路北梦山路56号湖滨新城3-4#综合一层（总院对面加油站内进30米）', 'logo': 'https://img.meituan.net/180.180/msmerchant/b354dcdddfbaad13259ae008f6065137432321.jpg'}
{'name': '渔傅·蓝海岸霞浦海鲜（正祥店）', 'id': 40210947, 'comments': 2658, 'price': 118.0, 'star': 4.9, 'type': '海鲜火锅', 'tx_lng': 119.31073, 'tx_lat': 26.07859, 'area': '东街口', 'addr': '鼓楼区五一北路正祥中心4座2层（中国珠宝右侧观光电梯上）', 'logo': 'http://p1.meituan.net/w.h/mogu/6d2afdabd3c97a9bad3c3fc709164ae1237487.png'}
{'name': '鸳鸯阁火锅（柏联店）', 'id': 179499797, 'comments': 2, 'price': 143.0, 'star': 4.5, 'type': '川味火锅', 'tx_lng': 119.31803, 'tx_lat': 26.076156, 'area': '五一广场/古田路', 'addr': '鼓楼区水部街道古田路177号柏联时代广场四层A1室', 'logo': 'https://img.meituan.net/w.h/msmerchant/3b0a8075f8679a7e73c9fcc2ea86e6f553326.jpg'}
{'name': '南乡·广东顺德菜（柏联店）', 'id': 169969587, 'comments': 0, 'price': 114.0, 'star': 5.0, 'type': '顺德菜', 'tx_lng': 119.318125, 'tx_lat': 26.076194, 'area': '五一广场/古田路', 'addr': '鼓楼区古田路177号（柏联时代广场1#楼）', 'logo': 'https://img.meituan.net/180.180/msmerchant/8036649e698632cd37224de487462cdd1140445.png'}
{'name': '雍和会海鲜姿造（三坊七巷店）', 'id': 1505747, 'comments': 21276, 'price': 109.0, 'star': 5.0, 'type': '海鲜火锅', 'tx_lng': 119.295886, 'tx_lat': 26.079524, 'area': '东街口/三坊七巷', 'addr': '鼓楼区三坊七巷光禄坊37号（近刘家大院）', 'logo': 'http://p0.meituan.net/w.h/poi/51871ab5540d15db8014e5858a6a970054512.jpg'}
{'name': '林某人（仙塔店）', 'id': 165305858, 'comments': 229, 'price': 16.0, 'star': 4.8, 'type': '蛋糕', 'tx_lng': 119.305529, 'tx_lat': 26.083863, 'area': '津泰路/协和医院', 'addr': '鼓楼区仙塔街87号', 'logo': 'https://img.meituan.net/w.h/msmerchant/cc7f8238cb00b2a81b34f20ea436973371887.jpg'}
{'name': '東京烧肉一町', 'id': 184812743, 'comments': 5, 'price': 144.0, 'star': 4.0, 'type': '日式烧烤/烤肉', 'tx_lng': 119.303573, 'tx_lat': 26.092807, 'area': '东街口', 'addr': '鼓楼区湖东路169号中闽天骜大厦1楼', 'logo': 'https://img.meituan.net/180.180/msmerchant/bc9e4c10606add883fcf1e12f1c395cd199611.jpg'}
{'name': 'Helens（黎明街店）', 'id': 5458174, 'comments': 1218, 'price': 59.0, 'star': 4.8, 'type': '西餐', 'tx_lng': 119.289879, 'tx_lat': 26.071896, 'area': '黎明/小柳市场', 'addr': '鼓楼区乌山西路黎明街1号（省文联,黎明实验小学对面）', 'logo': 'http://p0.meituan.net/w.h/scarlett/c2993e805b516a1ac6735da3634b3eea279362.png'}
{'name': '梅园悦竹酒店竹之味自助餐', 'id': 169006432, 'comments': 74, 'price': 70.0, 'star': 5.0, 'type': '综合自助', 'tx_lng': 119.314943, 'tx_lat': 26.080285, 'area': '五一广场/古田路', 'addr': '鼓楼区福新路171号梅园悦竹酒店1楼', 'logo': 'http://p1.meituan.net/w.h/mogu/cd8a82b714592256a41eb26b21cf3521129391.jpg'}
{'name': '胡桃里音乐酒馆（三坊七巷店）', 'id': 186243283, 'comments': 0, 'price': 111.0, 'star': 4.5, 'type': '川菜', 'tx_lng': 119.29572, 'tx_lat': 26.079486, 'area': '东街口/三坊七巷', 'addr': '鼓楼区光禄坊路45号', 'logo': 'https://qcloud.dpfile.com/pc/pg3GB-Wt-3hnb5lfwXnL20V6T5ZQdiGjdum6egQq7gjdx-QC0dVvyjGAWRwmnrwX.jpg'}
{'name': '杜老板松茸菌汤火锅（三坊七巷店）', 'id': 156857432, 'comments': 1175, 'price': 103.0, 'star': 4.6, 'type': '川味火锅', 'tx_lng': 119.299953, 'tx_lat': 26.080992, 'area': '鼓楼区', 'addr': '鼓楼区吉庇路20号醉得意楼上', 'logo': 'https://img.meituan.net/w.h/msmerchant/88a9dbf5609c9ee07b104ead8729925e489592.jpg'}
{'name': '觅云云南菜·翎韵（正大广场店）', 'id': 91437666, 'comments': 383, 'price': 87.0, 'star': 3.4, 'type': '云南菜', 'tx_lng': 119.309799, 'tx_lat': 26.074802, 'area': '五一广场/古田路', 'addr': '鼓楼区五一中路18号正大广场4层', 'logo': 'https://img.meituan.net/w.h/msmerchant/ce93f0732e6cf43aa572d03d941f943c196584.jpg'}
{'name': '福豚福居酒屋（井大路店）', 'id': 60600980, 'comments': 61, 'price': 88.0, 'star': 3.8, 'type': '居酒屋', 'tx_lng': 119.303319, 'tx_lat': 26.092599, 'area': '东街口', 'addr': '鼓楼区井大路223号（近湖东路）', 'logo': 'http://p0.meituan.net/180.180/mogu/0f8b143d67a8114a36a557fe3d4d20d0138122.jpg'}
{'name': '醉得意（吉庇路店）', 'id': 157865201, 'comments': 182, 'price': 38.0, 'star': 4.2, 'type': '福州菜', 'tx_lng': 119.299933, 'tx_lat': 26.081018, 'area': '鼓楼区', 'addr': '鼓楼区吉庇巷12号（安泰楼斜对面，必胜客旁）', 'logo': 'http://p1.meituan.net/w.h/mogu/7c98841e939bf1394ebfa7920390b0dc695640.png'}
{'name': '向阳坊（福新路店）', 'id': 1069814, 'comments': 149, 'price': 11.0, 'star': 4.2, 'type': '蛋糕', 'tx_lng': 119.31756, 'tx_lat': 26.080569, 'area': '五一广场/古田路', 'addr': '鼓楼区福新路277-2号（双子星站附近）', 'logo': 'http://p0.meituan.net/w.h/mogu/e2c1bdd9600c499ef0c5168572d4e25b86943.jpg'}
{'name': '大家食府（融侨店）', 'id': 185191829, 'comments': 0, 'price': 0.0, 'star': 3.5, 'type': '其他中餐', 'tx_lng': 119.26879, 'tx_lat': 26.072151, 'area': '福州大学/西禅寺', 'addr': '鼓楼区工业路523号福大怡山青年创新创业中心一楼', 'logo': 'https://img.meituan.net/180.180/msmerchant/04d84b3ebe70298ab1698e78e8b14a07225379.jpg'}
{'name': '蜀九香（金福大厦店）', 'id': 5144688, 'comments': 1676, 'price': 148.0, 'star': 4.3, 'type': '川味火锅', 'tx_lng': 119.304236, 'tx_lat': 26.075161, 'area': '五一广场/古田路', 'addr': '鼓楼区新权南路12号金福商厦2楼（香格里拉斜对面）', 'logo': 'https://img.meituan.net/w.h/msmerchant/1fc142620e4f2dbd997acea6115f32331926064.jpg'}
{'name': '福仙牛澳洲牛肉火锅', 'id': 185233332, 'comments': 30, 'price': 70.0, 'star': 3.9, 'type': '牛肉火锅', 'tx_lng': 119.312478, 'tx_lat': 26.077683, 'area': '正祥中心', 'addr': '鼓楼区古田支路18号（速8酒店2楼）', 'logo': 'https://img.meituan.net/w.h/msmerchant/49429062eb66f472a698932115956e5d16687.jpg'}
{'name': '炉端烧き•勝', 'id': 113001139, 'comments': 14, 'price': 246.0, 'star': 3.7, 'type': '日式烧烤/烤肉', 'tx_lng': 119.305488, 'tx_lat': 26.086791, 'area': '省立/旗汛口', 'addr': '鼓楼区东街98号东方酒店二楼（麦当劳楼上）', 'logo': 'http://p0.meituan.net/180.180/deal/6dd87766b1db5da09c7e6b5fadf87517117146.jpg'}
{'name': '华丰贺氏（福新店）', 'id': 1153391, 'comments': 661, 'price': 15.0, 'star': 4.4, 'type': '奶茶/果汁', 'tx_lng': 119.313379, 'tx_lat': 26.080421, 'area': '东街口', 'addr': '鼓楼区福新路117号（福新新华都对面）', 'logo': 'http://p1.meituan.net/w.h/deal/201206/19/1_0619162455.jpg'}
{'name': '咕叽咕鸡（古田路店）', 'id': 40483855, 'comments': 3556, 'price': 36.0, 'star': 4.4, 'type': '其他美食', 'tx_lng': 119.317358, 'tx_lat': 26.076943, 'area': '五一广场/古田路', 'addr': '鼓楼区古田路132-5号福达商厦一层（呼啦啦KTV旁）', 'logo': 'http://p0.meituan.net/w.h/bbia/3649be148ecdfdd9bae3b12c6a27202a83674.png'}
{'name': '麦大叔·福建客家菜（五四新华都店）', 'id': 163358382, 'comments': 54, 'price': 81.0, 'star': 4.6, 'type': '闽西菜', 'tx_lng': 119.306097, 'tx_lat': 26.096048, 'area': '五四路', 'addr': '鼓楼区五四路新华都广场附属楼2楼（新华都超市出口楼上）', 'logo': 'https://img.meituan.net/msmerchant/20366d8081a5d87b08ec667957a6d8ba747483.png'}
{'name': '小当家米嘟蛋糕', 'id': 179691906, 'comments': 17, 'price': 0.0, 'star': 4.2, 'type': '蛋糕', 'tx_lng': 119.319984, 'tx_lat': 26.074186, 'area': '五一广场/古田路', 'addr': '鼓楼区六一中路79-6东光大楼', 'logo': 'http://p0.meituan.net/w.h/mogu/6fc203fd3f6bf5e1d9d2d28daf1cc053127981.jpg'}
{'name': '德天肥牛海鲜火锅（柏联店）', 'id': 182646293, 'comments': 11, 'price': 91.0, 'star': 3.6, 'type': '海鲜火锅', 'tx_lng': 119.318155, 'tx_lat': 26.076209, 'area': '五一广场/古田路', 'addr': '鼓楼区古田路177号1#楼三层A1室（柏联时代广场3楼）', 'logo': 'https://img.meituan.net/w.h/msmerchant/63eb2d2342a60ce58a20ce62981f0d2132521.jpg'}
{'name': '老福洲徐记（东百mini店）', 'id': 163486534, 'comments': 26, 'price': 72.0, 'star': 4.8, 'type': '福州菜', 'tx_lng': 119.29894, 'tx_lat': 26.085208, 'area': '乌山/冠亚广场', 'addr': '鼓楼区八一七北路84-88号东百中心A馆11楼', 'logo': 'https://img.meituan.net/180.180/msmerchant/8cac3daee43a8677ad55d35c89b72d852484640.png'}
{'name': '炙尊宝锦州烧烤', 'id': 163134405, 'comments': 25, 'price': 63.0, 'star': 4.1, 'type': '烧烤', 'tx_lng': 119.319931, 'tx_lat': 26.070417, 'area': '五一广场/古田路', 'addr': '鼓楼区六一中路131-12号（阳光水岸小区正对面）', 'logo': 'http://p0.meituan.net/w.h/deal/92d9375fdc0599968230ab0c0a1bb2ff211499.jpg'}
{'name': '富豪酒家（正大广场店）', 'id': 1458219, 'comments': 128, 'price': 73.0, 'star': 4.1, 'type': '粤菜', 'tx_lng': 119.30985, 'tx_lat': 26.07498, 'area': '五一广场/古田路', 'addr': '鼓楼区五一中路18号正大广场5层', 'logo': 'https://img.meituan.net/w.h/msmerchant/f416f8a05d4fabdd1dde67b52efef23b380269.jpg'}
{'name': '麦大叔·福建客家菜（融侨锦江店）', 'id': 2400257, 'comments': 1100, 'price': 52.0, 'star': 4.2, 'type': '闽西菜', 'tx_lng': 119.270309, 'tx_lat': 26.068346, 'area': '福州大学/西禅寺', 'addr': '鼓楼区凤湖路158号融侨锦江建设银行右侧二楼', 'logo': 'http://p1.meituan.net/180.180/deal/__41400633__7146632.jpg'}
{'name': '古乐牛香牛肉牛杂火锅（五一中路店）', 'id': 182113665, 'comments': 78, 'price': 54.0, 'star': 4.2, 'type': '牛肉火锅', 'tx_lng': 119.312414, 'tx_lat': 26.074042, 'area': '五一广场/古田路', 'addr': '鼓楼区五一中路49号先施大厦一层B#店面（铁道大厦旁）', 'logo': 'https://img.meituan.net/w.h/msmerchant/0083cb42576e5708157edf3036064f2443921.jpg'}
{'name': '鲜香火哥特色串串香（三坊七巷店）', 'id': 185765601, 'comments': 70, 'price': 49.0, 'star': 5.0, 'type': '串串香', 'tx_lng': 119.300127, 'tx_lat': 26.080742, 'area': '鼓楼区', 'addr': '鼓楼区吉庇巷吉庇路17号', 'logo': 'https://img.meituan.net/w.h/msmerchant/96c65b864fcb4b3af7a6120cf5a537e860210.jpg'}
{'name': '高兴壹锅汕头鲜牛肉火锅', 'id': 164841019, 'comments': 498, 'price': 78.0, 'star': 4.9, 'type': '牛肉火锅', 'tx_lng': 119.304306, 'tx_lat': 26.086573, 'area': '省立/旗汛口', 'addr': '鼓楼区东街92-2号（中福广场裙楼2楼，旗汛口公交站旁）', 'logo': 'http://p1.meituan.net/180.180/deal/775b933dfe81b340daf7c587a7599c2224046.jpg'}
{'name': '烧哥烤鱼（福新店）', 'id': 97903148, 'comments': 236, 'price': 46.0, 'star': 4.0, 'type': '烤鱼', 'tx_lng': 119.315542, 'tx_lat': 26.080502, 'area': '五一广场/古田路', 'addr': '鼓楼区水部街道福新西路173号嘉丰小区1#楼1#-1店面', 'logo': 'http://p0.meituan.net/w.h/deal/f0b28c56c5257d3f1ee877955d4fe34271495.jpg'}
{'name': '宋峰桑水餐厅（五一店）', 'id': 95780860, 'comments': 122, 'price': 76.0, 'star': 5.0, 'type': '其他中餐', 'tx_lng': 119.30977, 'tx_lat': 26.07382, 'area': '五一广场/古田路', 'addr': '鼓楼区五一广场海底支路白金大厦4楼中国银行楼上（福建大剧院东侧对面）', 'logo': 'http://p1.meituan.net/w.h/deal/82c4b17b77842d314d5a23a7b87fc4f7585870.jpg'}
{'name': '源味三明', 'id': 164489941, 'comments': 63, 'price': 41.0, 'star': 4.0, 'type': '闽西菜', 'tx_lng': 119.293214, 'tx_lat': 26.097823, 'area': '左海/西湖公园', 'addr': '鼓楼区华林路三明大厦底商', 'logo': 'https://img.meituan.net/msmerchant/e7e3d16fa0a876cd6530610bc885dc2428806.jpg'}
{'name': '鸭八公', 'id': 187903105, 'comments': 45, 'price': 22.0, 'star': 4.7, 'type': '卤味', 'tx_lng': 119.304739, 'tx_lat': 26.087346, 'area': '省立/旗汛口', 'addr': '鼓楼区井大路26号（福州实验小学东门旁）', 'logo': 'https://img.meituan.net/w.h/msmerchant/59afe8f8976c1bdde4fd939f8a94989b55343.jpg'}
{'name': '焙乐滋', 'id': 5442322, 'comments': 958, 'price': 16.0, 'star': 3.7, 'type': '蛋糕', 'tx_lng': 119.32084, 'tx_lat': 26.07156, 'area': '五一广场/古田路', 'addr': '鼓楼区海潮东路天天向上KTV旁（如家酒店一层、近西禅寺蒙古营五四路五一广场/古田路正祥中心）', 'logo': 'https://img.meituan.net/w.h/msmerchant/e2950737cdfc8ca9aec07869f1a9ac4262077.jpg'}
{'name': '泰蒲·泰国料理（东街店）', 'id': 164620348, 'comments': 331, 'price': 67.0, 'star': 5.0, 'type': '泰国菜', 'tx_lng': 119.304804, 'tx_lat': 26.088393, 'area': '省立/旗汛口', 'addr': '鼓楼区东街街道井大路22号庆城市场2楼（井大路与庆城路交叉口）（依土捞化旁拐入）', 'logo': 'https://img.meituan.net/180.180/msmerchant/03e41b719e241f81d37141525b2ea4b5241997.jpg'}
{'name': '九门寨石锅鱼（福新店）', 'id': 40830482, 'comments': 313, 'price': 67.0, 'star': 4.3, 'type': '鱼火锅', 'tx_lng': 119.312157, 'tx_lat': 26.080192, 'area': '东街口', 'addr': '鼓楼区水部街道福新路福新新村B23#楼10#店面', 'logo': 'http://p0.meituan.net/w.h/deal/6a3432585a92962ba941dedbcbb11af299630.jpg'}
{'name': '澳牛鲜奶吧（古田支路店）', 'id': 2755621, 'comments': 274, 'price': 10.0, 'star': 4.0, 'type': '奶茶/果汁', 'tx_lng': 119.315292, 'tx_lat': 26.077717, 'area': '五一广场/古田路', 'addr': '鼓楼区古田支路98号泮洋新村2号楼', 'logo': 'http://p0.meituan.net/w.h/deal/f08784b58adff42bfe4b65e2b5a56d44248907.jpg'}
{'name': '渝胖子老城区炭火蛙锅', 'id': 180098658, 'comments': 70, 'price': 84.0, 'star': 4.3, 'type': '炭火锅', 'tx_lng': 119.29601, 'tx_lat': 26.086214, 'area': '左海/西湖公园', 'addr': '鼓楼区达明路美食街12号二楼（靠近令狐冲）', 'logo': 'https://img.meituan.net/w.h/msmerchant/7f1eaa2932f824b9b25f394644fa0882163701.jpg'}
{'name': 'HEAVEN·泡沫天堂西餐厅', 'id': 169508002, 'comments': 80, 'price': 58.0, 'star': 5.0, 'type': '汉堡', 'tx_lng': 119.309644, 'tx_lat': 26.074475, 'area': '五一广场/古田路', 'addr': '鼓楼区五一中路五一广场正大广场1楼', 'logo': 'https://img.meituan.net/w.h/msmerchant/23fb081797d87e4440d2dbc8ddcd059b3527006.png'}
{'name': '风清扬鱼蛙工坊（铁道大厦店）', 'id': 170536611, 'comments': 164, 'price': 44.0, 'star': 5.0, 'type': '川菜', 'tx_lng': 119.312912, 'tx_lat': 26.074103, 'area': '五一广场/古田路', 'addr': '鼓楼区五一中路铁道大厦高桥巷内', 'logo': 'https://img.meituan.net/w.h/msmerchant/307034e7668b8be3f0b4a408eb4804d147042.jpg'}
{'name': '夕时餐厅（开元店）', 'id': 156824605, 'comments': 1, 'price': 98.0, 'star': 4.5, 'type': '福州菜', 'tx_lng': 119.300912, 'tx_lat': 26.089011, 'area': '乌山/冠亚广场', 'addr': '鼓楼区鼓东路开元寺斜对面开元路30号', 'logo': 'https://img.meituan.net/180.180/msmerchant/94f3f2ec37d0aadac550f5c02482768f381840.jpg'}
{'name': '大堂酒廊（香格里拉大酒店）', 'id': 95298935, 'comments': 201, 'price': 108.0, 'star': 4.0, 'type': '西式甜品', 'tx_lng': 119.306091, 'tx_lat': 26.074438, 'area': '五一广场/古田路', 'addr': '鼓楼区新权南路9号香格里拉大酒店内', 'logo': 'https://img.meituan.net/w.h/msmerchant/b1f9474fb92914c9752351311e7b841d43428.jpg'}
{'name': '里外咖啡宵夜餐吧', 'id': 161120955, 'comments': 24, 'price': 48.0, 'star': 4.3, 'type': '其他美食', 'tx_lng': 119.31999, 'tx_lat': 26.070015, 'area': '五一广场/古田路', 'addr': '鼓楼区六一中路海鼓楼里一楼', 'logo': 'http://p0.meituan.net/w.h/mogu/48b9eaa531e5d44d13131528a38de43d216382.jpg'}
{'name': '居酒屋•勝', 'id': 5315814, 'comments': 3, 'price': 145.0, 'star': 4.0, 'type': '居酒屋', 'tx_lng': 119.303474, 'tx_lat': 26.092794, 'area': '五四路', 'addr': '鼓楼区湖东路169号天骜大厦1楼（光大银行对面）', 'logo': 'https://p0.meituan.net/ugcpic/6834f46724e6c1e7c6224bd88d3d2f67'}
{'name': 'EZ餐厅·自助餐（香格里拉大酒店）', 'id': 1029492, 'comments': 2548, 'price': 376.0, 'star': 5.0, 'type': '综合自助', 'tx_lng': 119.306091, 'tx_lat': 26.074437, 'area': '五一广场/古田路', 'addr': '鼓楼区新权南路9号香格里拉大酒店内', 'logo': 'http://p0.meituan.net/w.h/bbia/9146ad0f29806d4ebbdd7d9991d6c3ce1940762.jpg'}
{'name': '牛梦香自助牛肉火锅', 'id': 105846803, 'comments': 222, 'price': 81.0, 'star': 3.8, 'type': '火锅自助', 'tx_lng': 119.31973, 'tx_lat': 26.07916, 'area': '五一广场/古田路', 'addr': '鼓楼区六一北路573号天创佳缘1楼', 'logo': 'http://p0.meituan.net/w.h/msmerchant/acaf1c72cad7b28202ff4021714ed3b790609.jpg'}
{'name': 'EO蔬果料理（五四店）', 'id': 40976686, 'comments': 82, 'price': 80.0, 'star': 3.9, 'type': '轻食沙拉', 'tx_lng': 119.306051, 'tx_lat': 26.097808, 'area': '五四路', 'addr': '鼓楼区营迹路11号福州大戏院旁', 'logo': 'https://img.meituan.net/180.180/msmerchant/b95a066668633803489ce382db112d55425471.jpg'}
{'name': '凯逸轩', 'id': 1536366, 'comments': 1392, 'price': 138.0, 'star': 4.1, 'type': '粤菜', 'tx_lng': 119.318698, 'tx_lat': 26.076973, 'area': '五一广场/古田路', 'addr': '鼓楼区古田支路176号中城名仕汇8号楼1-4层（沃尔玛长城店对面）', 'logo': 'http://p0.meituan.net/w.h/mogu/5a29858e6342736dc89ca1d00cb86b4815942.jpg'}
{'name': '芋时代（福新路店）', 'id': 158368126, 'comments': 513, 'price': 17.0, 'star': 5.0, 'type': '其他美食', 'tx_lng': 119.313258, 'tx_lat': 26.080289, 'area': '东街口', 'addr': '鼓楼区福新路105号大华公寓一楼沿街商铺（玉林串串香楼下）', 'logo': 'http://p1.meituan.net/w.h/deal/36e0b49209318a418a5613505a9b07b237452.jpg'}
{'name': '珍宝海鲜', 'id': 175369283, 'comments': 18, 'price': 261.0, 'star': 4.0, 'type': '新加坡菜', 'tx_lng': 119.298974, 'tx_lat': 26.084996, 'area': '东街口', 'addr': '鼓楼区八一七北路东百商业中心C-1馆3层', 'logo': 'https://img.meituan.net/180.180/msmerchant/ed9b00ebbea203a59e5ab4c9cd3dac076294136.jpg'}
{'name': '愿茶（龙华店）', 'id': 112393470, 'comments': 1426, 'price': 18.0, 'star': 5.0, 'type': '奶茶/果汁', 'tx_lng': 119.309997, 'tx_lat': 26.079182, 'area': '东街口', 'addr': '鼓楼区五一北路170号（龙华天桥站牌后面）', 'logo': 'http://p0.meituan.net/w.h/mogu/5a458a2314b1d21b1271de22d10e863c98213.jpg'}
{'name': '小鱼小牛（王府井店）', 'id': 2652075, 'comments': 3476, 'price': 81.0, 'star': 4.2, 'type': '鱼火锅', 'tx_lng': 119.305763, 'tx_lat': 26.091579, 'area': '东街口', 'addr': '鼓楼区五四路128号王府井百货7楼', 'logo': 'https://img.meituan.net/w.h/msmerchant/84f18b6b6c3bfc566121e2f45ebfdba364213.png'}
{'name': '一幸料亭和食', 'id': 159310926, 'comments': 68, 'price': 200.0, 'star': 4.4, 'type': '日本菜', 'tx_lng': 119.296383, 'tx_lat': 26.079352, 'area': '东街口/三坊七巷', 'addr': '鼓楼区三坊七巷营房里16号', 'logo': 'http://p0.meituan.net/180.180/deal/0be3ef53b8bb087ed37cf00ea0bbffb82216833.jpg'}
{'name': '彼·时刻跨境生活体验馆', 'id': 114359652, 'comments': 82, 'price': 61.0, 'star': 5.0, 'type': '咖啡厅', 'tx_lng': 119.317274, 'tx_lat': 26.076932, 'area': '五一广场/古田路', 'addr': '鼓楼区古田路132号福达商厦一楼（中城名仕汇正门斜对面）', 'logo': 'http://p1.meituan.net/w.h/mogu/43aee430b233e614d39f6027b0e7145876113.jpg'}
{'name': '美汉堡（大名城店）', 'id': 157194664, 'comments': 15, 'price': 18.0, 'star': 3.5, 'type': '汉堡', 'tx_lng': 119.326256, 'tx_lat': 26.077017, 'area': '五一广场/古田路', 'addr': '鼓楼区长乐北路长福世家2号楼9号店面', 'logo': 'http://p1.meituan.net/w.h/deal/20cf5b78382a018472f92aa0869ed75d49832.jpg'}
{'name': '老福洲徐记（斗东店）', 'id': 77500852, 'comments': 38, 'price': 83.0, 'star': 3.4, 'type': '福州菜', 'tx_lng': 119.30343, 'tx_lat': 26.07396, 'area': '五一广场/古田路', 'addr': '鼓楼区八一七中路55号洪腾阁5号店面（福州大饭店斜对面）', 'logo': 'http://p0.meituan.net/180.180/deal/674affae095b12fd513d6b089770b58f78613.jpg'}
{'name': '重庆土灶鱼火锅', 'id': 164461014, 'comments': 174, 'price': 63.0, 'star': 5.0, 'type': '鱼火锅', 'tx_lng': 119.314469, 'tx_lat': 26.08077, 'area': '东街口', 'addr': '鼓楼区福新路50-4号店（华威大饭店斜对面）', 'logo': 'http://p1.meituan.net/w.h/mogu/95acc28a397c37cdb69224451acd257c24957.jpg'}
{'name': '片片福·肉片工匠（六一北路店）', 'id': 165862717, 'comments': 32, 'price': 15.0, 'star': 4.2, 'type': '地方小吃', 'tx_lng': 119.318843, 'tx_lat': 26.077351, 'area': '五一广场/古田路', 'addr': '鼓楼区六一北路644号沃尔玛正对面', 'logo': 'http://p0.meituan.net/w.h/mogu/66767b7376d1d1945892592129c4a23f433673.jpg'}
{'name': '溪雨观酸菜鱼（东街口大洋店）', 'id': 182350149, 'comments': 54, 'price': 77.0, 'star': 4.0, 'type': '酸菜鱼', 'tx_lng': 119.298808, 'tx_lat': 26.085487, 'area': '东街口/三坊七巷', 'addr': '鼓楼区东街口地下商业街东百c2负二层072号', 'logo': 'https://img.meituan.net/180.180/msmerchant/c876458de6170c74a9202a1e338edc1d10495333.jpg'}
{'name': '日光海蒸鲜工坊', 'id': 63721097, 'comments': 811, 'price': 118.0, 'star': 4.2, 'type': '海鲜', 'tx_lng': 119.318704, 'tx_lat': 26.080043, 'area': '五一广场/古田路', 'addr': '鼓楼区六一北路558号金三桥大厦A座1楼（太平洋保险隔壁，米乐星KTV楼下）', 'logo': 'http://p1.meituan.net/w.h/mogu/47c4feab4fe097ae8c25374535035c98251208.jpg'}
{'name': '玛格利塔（南门店）', 'id': 51470080, 'comments': 608, 'price': 21.0, 'star': 3.9, 'type': '披萨', 'tx_lng': 119.30232, 'tx_lat': 26.07669, 'area': '津泰路/协和医院', 'addr': '鼓楼区八一七路267号东兴大楼1#2#连体一层20号-1号店面', 'logo': 'http://p1.meituan.net/w.h/mogu/8cd9928448b72ce5c59fe21e47943c1662130.jpg'}
{'name': '有谷音乐餐吧', 'id': 180659655, 'comments': 0, 'price': 150.0, 'star': 4.0, 'type': '意大利菜', 'tx_lng': 119.299854, 'tx_lat': 26.082094, 'area': '鼓楼区', 'addr': '鼓楼区八一七北路东百C3106号', 'logo': 'https://img.meituan.net/180.180/msmerchant/649fb9e39ae5ae12edfc52b2ebfe2ee3363231.jpg'}
{'name': '签季·串串香火锅', 'id': 158384515, 'comments': 705, 'price': 59.0, 'star': 3.9, 'type': '串串香', 'tx_lng': 119.306927, 'tx_lat': 26.083348, 'area': '津泰路/协和医院', 'addr': '鼓楼区城守前路11-5号（六意便利店对面）', 'logo': 'https://img.meituan.net/w.h/msmerchant/55dc23225ee03d1487f6ae2479995118500234.jpg'}
{'name': '一品粥（六一环岛中城名仕汇店）', 'id': 1876313, 'comments': 33, 'price': 50.0, 'star': 5.0, 'type': '粥类', 'tx_lng': 119.318876, 'tx_lat': 26.077842, 'area': '五一广场/古田路', 'addr': '鼓楼区六一北路624号（沃尔玛对面）', 'logo': 'http://p0.meituan.net/w.h/poi/ab216b90a97b273f7da79e9138dc11b053248.jpg'}
{'name': '汕头味子里牛肉火锅（乌山西路店）', 'id': 169460131, 'comments': 206, 'price': 64.0, 'star': 5.0, 'type': '牛肉火锅', 'tx_lng': 119.280897, 'tx_lat': 26.069693, 'area': '乌山西路', 'addr': '鼓楼区乌山西路运天广场131号（天祥大酒楼旁50米）', 'logo': 'https://img.meituan.net/180.180/msmerchant/7ea5b9e16a4697259b7d25e5e84f9b827055195.png'}
{'name': '辣皇朝（福新中路店）', 'id': 5797242, 'comments': 3277, 'price': 90.0, 'star': 3.9, 'type': '小龙虾', 'tx_lng': 119.322926, 'tx_lat': 26.080902, 'area': '五一广场/古田路', 'addr': '鼓楼区福新中路75-12号永同昌大厦1楼（福建彩印厂店面）', 'logo': 'http://p1.meituan.net/w.h/mogu/3c1bb57a726ac18a05f57fd21950539d24060.jpg'}
{'name': '荣誉大酒楼（五一中路店）', 'id': 1515248, 'comments': 859, 'price': 114.0, 'star': 4.4, 'type': '粤菜', 'tx_lng': 119.310609, 'tx_lat': 26.075072, 'area': '五一广场/古田路', 'addr': '鼓楼区五一中路18号大洋天地6-7楼(近五一广场)', 'logo': 'http://p1.meituan.net/w.h/mogu/c4bd236ffe31a637fca467ce043450a416290.jpg'}
{'name': '麦大叔·福建客家菜（东百中心MINI店）', 'id': 163384155, 'comments': 1, 'price': 55.0, 'star': 4.0, 'type': '客家菜', 'tx_lng': 119.29885, 'tx_lat': 26.0851, 'area': '东街口/三坊七巷', 'addr': '鼓楼区八一七北路84号东百中心11楼A楼', 'logo': 'https://img.meituan.net/180.180/msmerchant/23f006872362b14ef0ef63049dfd89ec8422363.jpg'}
{'name': '蒸阳记浏阳蒸菜', 'id': 138719152, 'comments': 1234, 'price': 25.0, 'star': 5.0, 'type': '湘菜', 'tx_lng': 119.311666, 'tx_lat': 26.077, 'area': '正祥中心', 'addr': '鼓楼区五一北路171号新都会花园广场', 'logo': 'http://p1.meituan.net/w.h/deal/909122d2d83090d0c4abd5e1f105b782112788.jpg'}
{'name': '韩娘韩国料理（织缎巷店）', 'id': 153653959, 'comments': 143, 'price': 27.0, 'star': 4.3, 'type': '韩国菜', 'tx_lng': 119.303094, 'tx_lat': 26.082654, 'area': '津泰路/协和医院', 'addr': '鼓楼区织缎巷98号（织段巷与东泰路交叉路口）', 'logo': 'http://p1.meituan.net/w.h/mogu/e58433734b8ef97342169dca0b7e39a7129675.jpg'}
{'name': 'ZENHO天和割烹料理', 'id': 178856979, 'comments': 1, 'price': 426.0, 'star': 5.0, 'type': '日本菜', 'tx_lng': 119.29986, 'tx_lat': 26.082809, 'area': '鼓楼区', 'addr': '鼓楼区八一七北路东百中心C2馆四楼（乔丹楼上）', 'logo': 'https://img.meituan.net/180.180/msmerchant/e57ef285eb18b9a0d902c4134fd5c0307025762.jpg'}
{'name': '陶乡（五一北路店）', 'id': 833530, 'comments': 1008, 'price': 77.0, 'star': 4.6, 'type': '涮涮锅', 'tx_lng': 119.308419, 'tx_lat': 26.085384, 'area': '省立/旗汛口', 'addr': '鼓楼区五一北路40号（蒙古营站后身）', 'logo': 'http://p1.meituan.net/w.h/shopmainpic/bc64c8736e15c68700413358369145d3168839.jpg'}
{'name': '揽季锅物会（三坊七巷店）', 'id': 1535437, 'comments': 2745, 'price': 142.0, 'star': 4.9, 'type': '海鲜火锅', 'tx_lng': 119.29746, 'tx_lat': 26.07939, 'area': '东街口/三坊七巷', 'addr': '鼓楼区三坊七巷澳门路28号', 'logo': 'https://img.meituan.net/w.h/msmerchant/b5b1332773aeb75a32d7b0b1661ab0de282104.jpg'}
{'name': 'C2Lounge禧坊音乐酒肆', 'id': 182496704, 'comments': 4, 'price': 98.0, 'star': 4.5, 'type': '创意菜', 'tx_lng': 119.299559, 'tx_lat': 26.083402, 'area': '东街口/三坊七巷', 'addr': '鼓楼区八一七北路126号东百C2馆三楼（大洋百货斜对面）', 'logo': 'https://img.meituan.net/180.180/msmerchant/f569bd22887eab8434b1cd1534e3f9a4223622.jpg'}
{'name': '聚春园闽都食府', 'id': 94806312, 'comments': 93, 'price': 54.0, 'star': 5.0, 'type': '福建菜', 'tx_lng': 119.306341, 'tx_lat': 26.076922, 'area': '五一广场/古田路', 'addr': '鼓楼区于山路10号（于山宾馆1楼）', 'logo': 'http://p1.meituan.net/w.h/deal/671f96f51de9968e3d36f7922b78092493126.jpg'}
{'name': '牛辣火锅（斗池店）', 'id': 50946273, 'comments': 381, 'price': 98.0, 'star': 4.6, 'type': '牛肉火锅', 'tx_lng': 119.289392, 'tx_lat': 26.069384, 'area': '黎明/小柳市场', 'addr': '鼓楼区斗池路63号黎明中学旁二楼', 'logo': 'https://img.meituan.net/w.h/msmerchant/d7579d6fd0ab529d2a8ebc1156bda2bd61912.jpg'}
{'name': '热血兄弟（三盛国际中心店）', 'id': 179304085, 'comments': 1, 'price': 150.0, 'star': 4.0, 'type': '日式烧烤/烤肉', 'tx_lng': 119.305574, 'tx_lat': 26.090275, 'area': '东街口', 'addr': '鼓楼区五四路118号闽侨大厦三盛国际中心东塔楼商业1楼03铺西南侧', 'logo': 'https://img.meituan.net/180.180/msmerchant/3094b65bcf5579a4d10592999151d5c7720567.jpg'}
{'name': '宝岛传承鸭面线（斗东店）', 'id': 159068979, 'comments': 1320, 'price': 32.0, 'star': 3.6, 'type': '台湾菜', 'tx_lng': 119.303201, 'tx_lat': 26.073983, 'area': '五一广场/古田路', 'addr': '鼓楼区八一七中路55号洪腾阁1楼', 'logo': 'http://p0.meituan.net/w.h/mogu/ae64e69b129f6917128d245bc70eec64266498.jpg'}
{'name': '盛世经典牛排自助餐厅（正大店）', 'id': 167063914, 'comments': 140, 'price': 55.0, 'star': 3.0, 'type': '牛排', 'tx_lng': 119.310327, 'tx_lat': 26.074992, 'area': '五一广场/古田路', 'addr': '鼓楼区吉田路正大广场4楼（海天盛宴旁）', 'logo': 'http://p1.meituan.net/w.h/mogu/6da80b16dbba2aa520a04122179de526171257.jpg'}
{'name': '财富·品位应醉楼餐厅', 'id': 1876529, 'comments': 576, 'price': 136.0, 'star': 4.1, 'type': '西餐', 'tx_lng': 119.30853, 'tx_lat': 26.097092, 'area': '温泉公园/福州广场', 'addr': '鼓楼区树汤路82号财富·品位酒店16楼', 'logo': 'https://img.meituan.net/180.180/msmerchant/5de85d4ffb24244b9f2b749553bc3392316879.jpg'}
{'name': '大山料理', 'id': 156877022, 'comments': 735, 'price': 34.0, 'star': 4.5, 'type': '日式寿司', 'tx_lng': 119.302984, 'tx_lat': 26.082983, 'area': '乌山/冠亚广场', 'addr': '鼓楼区东泰路184号（碧玉花园）', 'logo': 'https://img.meituan.net/w.h/msmerchant/ef201e28cd196e7812ce0f7ee076f33e47448.jpg'}
{'name': '久久江记海鲜火锅（福新路明星店）', 'id': 6689496, 'comments': 813, 'price': 96.0, 'star': 4.0, 'type': '海鲜火锅', 'tx_lng': 119.318616, 'tx_lat': 26.08119, 'area': '东街口', 'addr': '鼓楼区六一北路与福新路口交叉口处（华盛大厦一楼）', 'logo': 'http://p1.meituan.net/w.h/mogu/df0b135a7caa7684359850d4ec8acce4139899.jpg'}
{'name': '厚膳堂老北京火锅（五四路店）', 'id': 159452118, 'comments': 274, 'price': 100.0, 'star': 3.7, 'type': '老北京火锅', 'tx_lng': 119.305469, 'tx_lat': 26.096938, 'area': '五四路', 'addr': '鼓楼区五四路210-2号国际大厦一楼（新华都旁边）', 'logo': 'http://p1.meituan.net/180.180/deal/c404414b81413d11cf11575f6b91df0d44175.jpg'}
{'name': '甜悦（开元路店）', 'id': 159443717, 'comments': 617, 'price': 18.0, 'star': 5.0, 'type': '蛋糕', 'tx_lng': 119.301613, 'tx_lat': 26.088734, 'area': '乌山/冠亚广场', 'addr': '鼓楼区鼓东街道开元路15-3号开元新村B6#楼1层05店面', 'logo': 'http://p1.meituan.net/w.h/mogu/c4980815b42f25e69cb36b4e87d97bf213221.jpg'}
{'name': '红运火锅小栈（三坊七巷店）', 'id': 112418804, 'comments': 820, 'price': 89.0, 'star': 4.2, 'type': '川味火锅', 'tx_lng': 119.296272, 'tx_lat': 26.086945, 'area': '左海/西湖公园', 'addr': '鼓楼区省府路92号二楼（老福州对面，达明路19号）', 'logo': 'http://p1.meituan.net/w.h/mogu/bf48af6d570b4270e402d3ca467bd56f55804.jpg'}
{'name': '鑫阿杜香港火锅（金福店）', 'id': 1874923, 'comments': 178, 'price': 139.0, 'star': 4.3, 'type': '港式火锅', 'tx_lng': 119.304463, 'tx_lat': 26.074834, 'area': '五一广场/古田路', 'addr': '鼓楼区新权南路12号金福商厦三楼（香格里拉斜对面）', 'logo': 'http://p0.meituan.net/180.180/deal/__47543591__1155645.jpg'}
{'name': '贯一台湾牛肉面（斗东路店）', 'id': 842835, 'comments': 2878, 'price': 29.0, 'star': 4.0, 'type': '面条', 'tx_lng': 119.303489, 'tx_lat': 26.074047, 'area': '五一广场/古田路', 'addr': '鼓楼区斗东路10-2号洪腾阁一楼沿街商铺（福州大饭店对面）', 'logo': 'https://img.meituan.net/w.h/msmerchant/adecf7d205d2e0e2a782e4356c4ca01622899.jpg'}
{'name': '山里人家（六一路店）', 'id': 157347753, 'comments': 46, 'price': 70.0, 'star': 4.2, 'type': '农家菜', 'tx_lng': 119.31938, 'tx_lat': 26.078371, 'area': '鼓楼区', 'addr': '鼓楼区六一北路587号', 'logo': 'http://p0.meituan.net/w.h/mogu/431559be724c6d00cb7da08e7ebcef8d120538.jpg'}
{'name': 'MUA私房汉堡（三坊七巷·塔巷店）', 'id': 150371930, 'comments': 304, 'price': 66.0, 'star': 3.8, 'type': '汉堡', 'tx_lng': 119.29739, 'tx_lat': 26.08438, 'area': '东街口/三坊七巷', 'addr': '鼓楼区塔巷24号（星巴克附近）', 'logo': 'https://p0.meituan.net/mogu/03a4e9147e93a882a451ad324936e87a74507.jpg'}
{'name': '福州大饭店-西餐厅', 'id': 833572, 'comments': 665, 'price': 156.0, 'star': 3.8, 'type': '综合自助', 'tx_lng': 119.304219, 'tx_lat': 26.073709, 'area': '五一广场/古田路', 'addr': '鼓楼区斗东路1号（近八一七中路口）', 'logo': 'http://p1.meituan.net/w.h/poi/ffd99ce84a72c8554c65d971c101e52187257.jpg'}
{'name': '牛太郎烧烤城（正大广场店）', 'id': 832293, 'comments': 3916, 'price': 59.0, 'star': 3.0, 'type': '烧烤', 'tx_lng': 119.310369, 'tx_lat': 26.075082, 'area': '五一广场/古田路', 'addr': '鼓楼区五一中路18号正大广场5层', 'logo': 'http://p1.meituan.net/w.h/mogu/d0039d463c29a928c4ea19f749dccf8362263.jpg'}
{'name': '南沃海韵·海鲜姿造', 'id': 185062692, 'comments': 1, 'price': 90.0, 'star': 3.5, 'type': '海鲜', 'tx_lng': 119.268577, 'tx_lat': 26.072346, 'area': '福州大学/西禅寺', 'addr': '鼓楼区怡山路福大青年创业中心二楼', 'logo': 'https://img.meituan.net/180.180/msmerchant/6b5279cb8ab2b1be559fd272ae75d54a48081.jpg'}
{'name': '渔傅·海岸角霞浦海鲜（福新路店）', 'id': 95952948, 'comments': 22, 'price': 88.0, 'star': 4.2, 'type': '海鲜火锅', 'tx_lng': 119.322528, 'tx_lat': 26.080832, 'area': '五一广场/古田路', 'addr': '鼓楼区福新中路76-5号省彩印厂对面（原海岸角海鲜）', 'logo': 'http://p1.meituan.net/w.h/mogu/6d2afdabd3c97a9bad3c3fc709164ae1237487.png'}
{'name': '崔酱炸鸡（安泰店）', 'id': 98310362, 'comments': 99, 'price': 37.0, 'star': 5.0, 'type': '韩式小吃', 'tx_lng': 119.301601, 'tx_lat': 26.081972, 'area': '津泰路/协和医院', 'addr': '鼓楼区八一七北路安泰中心B区第三通道（猪吉面缘隔壁）', 'logo': 'http://p1.meituan.net/w.h/mogu/45f125091b99ab4a6e47b42c93c892bf36230.jpg'}
{'name': '未来意式餐厅（井大总店）', 'id': 94883386, 'comments': 271, 'price': 30.0, 'star': 4.5, 'type': '快餐', 'tx_lng': 119.303552, 'tx_lat': 26.091656, 'area': '东街口', 'addr': '鼓楼区井大路187号', 'logo': 'https://img.meituan.net/w.h/msmerchant/6d7a810c8c177577ce583823b8d1a6bc156685.jpg'}
{'name': '马克杯面食吧（福新店）', 'id': 51527672, 'comments': 150, 'price': 22.0, 'star': 4.7, 'type': '快餐', 'tx_lng': 119.311405, 'tx_lat': 26.080529, 'area': '东街口', 'addr': '鼓楼区福新路10-3号（新华都购物广场1楼）', 'logo': 'http://p0.meituan.net/w.h/mogu/06bd308724637fa460b66573763fc2f8124542.jpg'}
{'name': '说麻道辣（温泉店）', 'id': 1485071, 'comments': 305, 'price': 57.0, 'star': 4.6, 'type': '川菜', 'tx_lng': 119.310991, 'tx_lat': 26.090307, 'area': '东街口', 'addr': '鼓楼区温泉支路28号一8（珊珊粥铺楼上、公交车站对面）', 'logo': 'http://p0.meituan.net/w.h/mogu/202db89ba3eb333cd3a8a25b2217363168176.jpg'}
{'name': '未来意式餐厅（思儿亭店）', 'id': 182100016, 'comments': 10, 'price': 30.0, 'star': 4.3, 'type': '快餐', 'tx_lng': 119.307348, 'tx_lat': 26.111692, 'area': '省体/湖前', 'addr': '鼓楼区融侨路35号（思儿亭小区6号、8号连体1层01店面）', 'logo': 'https://img.meituan.net/180.180/msmerchant/707f96fd940669685b1a449e2306506c1653575.jpg'}
{'name': '黎明戴斯海鲜阁', 'id': 2568758, 'comments': 1829, 'price': 95.0, 'star': 5.0, 'type': '海鲜', 'tx_lng': 119.299438, 'tx_lat': 26.073982, 'area': '东街口/三坊七巷', 'addr': '鼓楼区乌山路53号黎明戴斯酒店5楼（市政府斜对面）', 'logo': 'http://p1.meituan.net/w.h/deal/479e3a96ab09321441d51a6adfaf31de256352.jpg'}
{'name': '鹿谷製茶（道山路店）', 'id': 157863544, 'comments': 189, 'price': 18.0, 'star': 5.0, 'type': '奶茶/果汁', 'tx_lng': 119.2982, 'tx_lat': 26.07828, 'area': '东街口/三坊七巷', 'addr': '鼓楼区东街口商圈澳门路1号', 'logo': 'https://img.meituan.net/w.h/msmerchant/4d05263ba735c80ed0746c60156f730344034.jpg'}
{'name': '派提小酒馆', 'id': 182603838, 'comments': 0, 'price': 0.0, 'star': 4.0, 'type': '川菜', 'tx_lng': 119.317912, 'tx_lat': 26.076197, 'area': '五一广场/古田路', 'addr': '鼓楼区福州市鼓楼区古田路柏联时代广场2层A4', 'logo': 'https://img.meituan.net/180.180/msmerchant/58d1d00e2c6cd9d93352e49885e6a09632061.jpg'}
{'name': '越城记黑鱼煲（王府井店）', 'id': 70487290, 'comments': 3401, 'price': 57.0, 'star': 3.8, 'type': '鱼火锅', 'tx_lng': 119.30622, 'tx_lat': 26.09148, 'area': '东街口', 'addr': '鼓楼区五四路王府井百货B1楼', 'logo': 'http://p1.meituan.net/w.h/mogu/f4802e662e1ec99c868b30614114c05111629.jpg'}
{'name': '香港厨房', 'id': 51336754, 'comments': 504, 'price': 53.0, 'star': 5.0, 'type': '粤菜', 'tx_lng': 119.299254, 'tx_lat': 26.080549, 'area': '东街口/三坊七巷', 'addr': '鼓楼区吉庇巷52号', 'logo': 'http://p1.meituan.net/w.h/deal/f19f109eb853146f3c28bbee7237b7c9106391.jpg'}
{'name': '两水云吞（达明店）', 'id': 187553985, 'comments': 0, 'price': 18.0, 'star': 4.0, 'type': '馄饨', 'tx_lng': 119.29587, 'tx_lat': 26.086499, 'area': '东街口/三坊七巷', 'addr': '鼓楼区达明路24号老福洲对面', 'logo': 'https://img.meituan.net/msmerchant/3c43d71de56a80ff0b4ba3d78651589d2568805.jpg'}
{'name': '沈记榴莲千层蛋糕（东街店）', 'id': 166595942, 'comments': 99, 'price': 16.0, 'star': 5.0, 'type': '甜点饮品', 'tx_lng': 119.301545, 'tx_lat': 26.082619, 'area': '津泰路/协和医院', 'addr': '鼓楼区织缎巷66号（织缎巷与南营巷交口西30米路北）', 'logo': 'http://p0.meituan.net/w.h/mogu/bd8d5f960bf3cfb489a21529536bea5383768.jpg'}
{'name': '潮福城大酒楼（阳光城店）', 'id': 1524104, 'comments': 15919, 'price': 77.0, 'star': 3.7, 'type': '粤菜', 'tx_lng': 119.312588, 'tx_lat': 26.080644, 'area': '东街口', 'addr': '鼓楼区福新西路28号阳光城三期2楼（近东水路建设银行旁）', 'logo': 'http://p1.meituan.net/w.h/apiback/ca2c4907beded84df27259085ea0c24a95604.jpg'}
{'name': '江湖堂酒馆', 'id': 184797202, 'comments': 25, 'price': 80.0, 'star': 4.6, 'type': '清吧', 'tx_lng': 119.295999, 'tx_lat': 26.086362, 'area': '东街口/三坊七巷', 'addr': '鼓楼区达明路美食街12号（2楼，老福州对面）', 'logo': 'https://p0.meituan.net/joymerchant/2262159585909786639-48086503-1542250941369.jpg'}
{'name': '无味舒食（东百店）', 'id': 175366101, 'comments': 70, 'price': 141.0, 'star': 3.6, 'type': '素食', 'tx_lng': 119.299336, 'tx_lat': 26.084562, 'area': '东街口/三坊七巷', 'addr': '鼓楼区八一七北路122号东百中心C1座4楼（近地铁1号线东街口站C出口）', 'logo': 'https://img.meituan.net/w.h/msmerchant/7483224f24278d588971595b1b283dfc156746.jpg'}
{'name': '舒友海鲜大酒楼', 'id': 1546884, 'comments': 7537, 'price': 81.0, 'star': 3.5, 'type': '海鲜', 'tx_lng': 119.28843, 'tx_lat': 26.07115, 'area': '乌山西路', 'addr': '鼓楼区黎明街15号', 'logo': 'http://p0.meituan.net/w.h/deal/__13594130__4559322.jpg'}
{'name': 'Roke小屋蛋糕（鼓楼店）', 'id': 165466384, 'comments': 714, 'price': 89.0, 'star': 5.0, 'type': '蛋糕', 'tx_lng': 119.304726, 'tx_lat': 26.086966, 'area': '省立/旗汛口', 'addr': '鼓楼区东街街道东街92号中福广场8层06室', 'logo': 'https://img.meituan.net/msmerchant/f7eab1a33950b771630a1e916ea1c761226643.jpg'}
{'name': '古典玫瑰园（三坊七巷店）', 'id': 50831987, 'comments': 199, 'price': 82.0, 'star': 5.0, 'type': '咖啡厅', 'tx_lng': 119.296506, 'tx_lat': 26.079679, 'area': '东街口/三坊七巷', 'addr': '鼓楼区安泰街道光禄坊27号', 'logo': 'https://img.meituan.net/w.h/msmerchant/8b6fa1025da3670c533a31896dd6209d2370873.jpg'}
{'name': '佳丽花园', 'id': 1875091, 'comments': 1483, 'price': 69.0, 'star': 4.8, 'type': '粤菜', 'tx_lng': 119.296833, 'tx_lat': 26.079268, 'area': '东街口/三坊七巷', 'addr': '鼓楼区南街街道营房里6号1-3层', 'logo': 'http://p0.meituan.net/w.h/apiback/fa676fb0e7333a31d1fd52c9c76dd8a260850.jpg'}
{'name': 'SUKE舒克烘焙', 'id': 186397544, 'comments': 5, 'price': 0.0, 'star': 3.5, 'type': '甜点饮品', 'tx_lng': 119.277231, 'tx_lat': 26.077046, 'area': '福州大学/西禅寺', 'addr': '鼓楼区工业路华润万象城S5栋1820室', 'logo': 'https://img.meituan.net/180.180/msmerchant/ebb5d37a7e01655f8af007204c99228d6379822.jpg'}
{'name': '酸喜·苗侗菜', 'id': 160321075, 'comments': 226, 'price': 121.0, 'star': 4.5, 'type': '贵州菜', 'tx_lng': 119.294276, 'tx_lat': 26.083369, 'area': '东街口/三坊七巷', 'addr': '鼓楼区三坊七巷雅道巷59号', 'logo': 'https://img.meituan.net/w.h/msmerchant/3a04d630969ccd77616e7e78a86938103051660.jpg'}
{'name': '海联潮港城', 'id': 832549, 'comments': 5802, 'price': 56.0, 'star': 4.4, 'type': '粤菜', 'tx_lng': 119.317645, 'tx_lat': 26.087599, 'area': '东街口', 'addr': '鼓楼区东门塔头路1号海联亚朵酒店2-3楼', 'logo': 'http://p0.meituan.net/w.h/mogu/71915a291c3bf846637b447fe5db5b73157606.jpg'}
{'name': '茗峰岩韵茶会所', 'id': 182450979, 'comments': 115, 'price': 0.0, 'star': 5.0, 'type': '茶馆', 'tx_lng': 119.309514, 'tx_lat': 26.090434, 'area': '东街口', 'addr': '鼓楼区温泉路58号铭濠酒店5楼', 'logo': 'https://vfile.meituan.net/joymerchant/-1030398826703072725-46012332-1537448975721.jpg'}
{'name': '食趣石代（东街口店）', 'id': 182131797, 'comments': 62, 'price': 18.0, 'star': 5.0, 'type': '快餐', 'tx_lng': 119.301128, 'tx_lat': 26.082536, 'area': '津泰路/协和医院', 'addr': '鼓楼区织缎巷38号（溜溜转对面）', 'logo': 'http://p0.meituan.net/w.h/mogu/b3c2a5ccbfc2addc464ca880d727377f344710.jpg'}
{'name': '兰夏尔小情调牛排馆（恒宇国际店）', 'id': 97311014, 'comments': 166, 'price': 101.0, 'star': 4.8, 'type': '牛排', 'tx_lng': 119.31494, 'tx_lat': 26.090738, 'area': '东街口', 'addr': '鼓楼区温泉支路119号恒宇国际1号楼1层10号店面', 'logo': 'https://img.meituan.net/w.h/msmerchant/c33437eb26e1a4429e19b9ece7de58a41394570.png'}
{'name': '为你 FOR YOU', 'id': 179185396, 'comments': 1, 'price': 29.0, 'star': 4.5, 'type': '西式甜品', 'tx_lng': 119.308215, 'tx_lat': 26.084606, 'area': '蒙古营', 'addr': '鼓楼区五一北路66-5', 'logo': 'https://img.meituan.net/180.180/msmerchant/744b4ad56f115768c379c372043812311204608.jpg'}
{'name': '五福记（东大路店）', 'id': 162115888, 'comments': 117, 'price': 11.0, 'star': 4.5, 'type': '快餐', 'tx_lng': 119.313268, 'tx_lat': 26.087203, 'area': '东街口', 'addr': '鼓楼区东大路137号（机械工业设计院旁）', 'logo': 'http://p1.meituan.net/w.h/mogu/2bbcff3eb9047f1d747895015cafa80077616.jpg'}
{'name': '勺园印象江南', 'id': 1124148, 'comments': 2070, 'price': 100.0, 'star': 4.8, 'type': '烤鱼', 'tx_lng': 119.289976, 'tx_lat': 26.08191, 'area': '东街口/三坊七巷', 'addr': '鼓楼区白马北路勺园里1号7座1层105号', 'logo': 'http://p1.meituan.net/w.h/mogu/1d1fd20cfdd86107da50b33a01b19e6925752.jpg'}
{'name': '关谷寿司（鼓楼店）', 'id': 42946318, 'comments': 75, 'price': 31.0, 'star': 3.8, 'type': '日式小吃', 'tx_lng': 119.30102, 'tx_lat': 26.088369, 'area': '乌山/冠亚广场', 'addr': '鼓楼区五显巷35号', 'logo': 'http://p1.meituan.net/180.180/deal/19d442b1d4e520e8806150dd593d368470273.jpg'}
{'name': '丽江龙继斑鱼庄（王府井店）', 'id': 162875376, 'comments': 592, 'price': 92.0, 'star': 4.9, 'type': '鱼火锅', 'tx_lng': 119.305728, 'tx_lat': 26.091619, 'area': '东街口', 'addr': '鼓楼区五四路王府井六楼', 'logo': 'https://img.meituan.net/w.h/msmerchant/7011293c3f6b470eb8fa94e0e2a296ad63225.jpg'}
{'name': '鸽皇冬北烧烤', 'id': 177450408, 'comments': 177, 'price': 71.0, 'star': 5.0, 'type': '烧烤', 'tx_lng': 119.287894, 'tx_lat': 26.071128, 'area': '乌山西路', 'addr': '鼓楼区乌山西路15-1号（红馆KTV侧面）', 'logo': 'https://img.meituan.net/w.h/msmerchant/024e5a37ea2ef737a2e570f7b578f2ad1316501.png'}
{'name': '大鼓米线（鼓楼东街口店 ）', 'id': 179107172, 'comments': 6, 'price': 34.0, 'star': 4.6, 'type': '米线', 'tx_lng': 119.299387, 'tx_lat': 26.082064, 'area': '鼓楼区', 'addr': '鼓楼区八一七北路122号东百中心C3馆B2层58号（福院广场旁）（福院广场旁）', 'logo': 'https://img.meituan.net/180.180/msmerchant/9f667a9173558d4957e80904fdfe8769280499.jpg'}
{'name': '老北京鲍师傅糕点（三坊七巷店）', 'id': 182523422, 'comments': 87, 'price': 12.0, 'star': 5.0, 'type': '糕点店', 'tx_lng': 119.296505, 'tx_lat': 26.085885, 'area': '左海/西湖公园', 'addr': '鼓楼区杨桥东路24号', 'logo': 'https://img.meituan.net/w.h/msmerchant/fd21683bffa0430254f296cf68105dfa113008.jpg'}
{'name': '1718海鲜火锅（融侨一店）', 'id': 1124793, 'comments': 3034, 'price': 105.0, 'star': 5.0, 'type': '海鲜火锅', 'tx_lng': 119.270076, 'tx_lat': 26.067967, 'area': '福州大学/西禅寺', 'addr': '鼓楼区西江滨大道66号融侨锦江B区35号店（近江滨路）', 'logo': 'https://img.meituan.net/w.h/msmerchant/26cff87b5f239636b0bf93b18da705e656219.jpg'}
{'name': 'LOTUSTREE COFFEE鹿豆咖啡（东百中心店）', 'id': 177572909, 'comments': 1, 'price': 42.0, 'star': 4.5, 'type': '咖啡厅', 'tx_lng': 119.298899, 'tx_lat': 26.085175, 'area': '鼓楼区', 'addr': '鼓楼区八一七北路88号东百中心A馆1F（A5门旁）', 'logo': 'http://p0.meituan.net/180.180/deal/e625220542a20b6f58061d047c53d6271177198.jpg'}
{'name': '丁小懒口袋饭团（五显巷店）', 'id': 157821962, 'comments': 600, 'price': 14.0, 'star': 5.0, 'type': '小吃快餐', 'tx_lng': 119.30065, 'tx_lat': 26.08903, 'area': '乌山/冠亚广场', 'addr': '鼓楼区五显巷26号', 'logo': 'https://img.meituan.net/w.h/msmerchant/d895f2dc39971c2e9a8e3b790d78a9bf13814.jpg'}
{'name': '储缘蛋糕（鼓楼店）', 'id': 164966343, 'comments': 151, 'price': 50.0, 'star': 5.0, 'type': '蛋糕', 'tx_lng': 119.301896, 'tx_lat': 26.088476, 'area': '乌山/冠亚广场', 'addr': '鼓楼区卫前街106号（开元新村1区底商）', 'logo': 'http://p0.meituan.net/w.h/scarlett/dd40062805e73a876692b9589339b1c6223571.png'}
{'name': '弥茶Mi·Tea（仙塔店）', 'id': 160826550, 'comments': 741, 'price': 19.0, 'star': 5.0, 'type': '奶茶/果汁', 'tx_lng': 119.305061, 'tx_lat': 26.084642, 'area': '津泰路/协和医院', 'addr': '鼓楼区仙塔街52-54号（仙塔街公交车站旁）', 'logo': 'http://p0.meituan.net/w.h/bbia/3ca7e38f5694464cdf37ed2ca8174161761975.jpg'}
{'name': '木森茶（六一店）', 'id': 182372106, 'comments': 168, 'price': 18.0, 'star': 5.0, 'type': '奶茶/果汁', 'tx_lng': 119.31549, 'tx_lat': 26.091461, 'area': '东街口', 'addr': '鼓楼区六一北路298号金龙新村沿街商铺（近恒宇国际）', 'logo': 'https://img.meituan.net/w.h/msmerchant/fd30dbe681b3a012fd77dfe34222cc3114471.jpg'}
{'name': '多乐之日（省府路店）', 'id': 5733124, 'comments': 854, 'price': 23.0, 'star': 4.2, 'type': '西式甜品', 'tx_lng': 119.29774, 'tx_lat': 26.087338, 'area': '左海/西湖公园', 'addr': '鼓楼区省府路28-1号山水大酒店斜对面', 'logo': 'http://p0.meituan.net/w.h/merchantpic/6b74d1508a3bbc3712eac9ca1bccaca313142.jpg'}
{'name': '哈哈碳都（王府井店）', 'id': 113703524, 'comments': 1020, 'price': 70.0, 'star': 5.0, 'type': '韩国菜', 'tx_lng': 119.305649, 'tx_lat': 26.091502, 'area': '东街口', 'addr': '鼓楼区王府井百货7层', 'logo': 'http://p0.meituan.net/w.h/deal/2784d3670335e8c2229cf3a04640bb1b41119.jpg'}
{'name': '星洲小馆·新加坡餐厅', 'id': 174163823, 'comments': 54, 'price': 71.0, 'star': 4.2, 'type': '新加坡菜', 'tx_lng': 119.29945, 'tx_lat': 26.087144, 'area': '乌山/冠亚广场', 'addr': '鼓楼区八一七北路89号贤南商厦13号', 'logo': 'https://img.meituan.net/w.h/msmerchant/75fdd8f003a6001b4e0da3e3bf1fba65117870.jpg'}
{'name': '蒸的很爱你', 'id': 179598502, 'comments': 40, 'price': 144.0, 'star': 5.0, 'type': '海鲜', 'tx_lng': 119.299947, 'tx_lat': 26.082225, 'area': '东街口/三坊七巷', 'addr': '鼓楼区八一七北路东百中心C3馆4楼（安泰中心织缎巷正对面）', 'logo': 'https://img.meituan.net/w.h/msmerchant/fff85b6b8c4850ab44ab86bc9aa122d6313374.jpg'}
{'name': '雍和会海鲜姿造自助（湖东店）', 'id': 4498559, 'comments': 10189, 'price': 383.0, 'star': 5.0, 'type': '海鲜自助', 'tx_lng': 119.304523, 'tx_lat': 26.093009, 'area': '东街口', 'addr': '鼓楼区湖东路171号中旅大厦二楼（五四路）', 'logo': 'http://p0.meituan.net/w.h/poi/41a9c6ff209a56a40d8b4d4d9ea1f93f54988.jpg'}
{'name': '博多一豚轩（五四路店）', 'id': 107975791, 'comments': 285, 'price': 54.0, 'star': 5.0, 'type': '日本菜', 'tx_lng': 119.306843, 'tx_lat': 26.098351, 'area': '温泉公园/福州广场', 'addr': '鼓楼区五四路159号世界金龙大厦一楼北侧', 'logo': 'https://img.meituan.net/w.h/msmerchant/479c80ec4b8569892237ebc5ce9de025333908.jpg'}
{'name': '新邮电公寓海鲜酒楼', 'id': 830534, 'comments': 1991, 'price': 90.0, 'star': 4.0, 'type': '福建菜', 'tx_lng': 119.31114, 'tx_lat': 26.08469, 'area': '蒙古营', 'addr': '鼓楼区五一北路沙帽井3号1楼（省邮电公寓院内）', 'logo': 'http://p1.meituan.net/w.h/deal/0d02606c87395135ce5cfeaadb7b0372117471.jpg'}
{'name': '快串串串香火锅（达明店）', 'id': 170168924, 'comments': 159, 'price': 65.0, 'star': 5.0, 'type': '串串香', 'tx_lng': 119.296024, 'tx_lat': 26.08634, 'area': '左海/西湖公园', 'addr': '鼓楼区达明路阿楷美食街12号2层（老福州对面）', 'logo': 'http://p1.meituan.net/w.h/bbia/6046edcd498a04859c3a059a404601461237177.jpg'}
{'name': '冲天吼小龙虾', 'id': 156627507, 'comments': 452, 'price': 80.0, 'star': 5.0, 'type': '小龙虾', 'tx_lng': 119.305765, 'tx_lat': 26.091265, 'area': '东街口', 'addr': '鼓楼区五四路王府井负一层', 'logo': 'http://p0.meituan.net/w.h/mogu/7f33d8feb3e7333a7baae8ae60fd237b64350.jpg'}
{'name': 'V-ONE | 西雅图海鲜自助轻姿造（王府井店）', 'id': 163094744, 'comments': 1386, 'price': 172.0, 'star': 4.3, 'type': '海鲜自助', 'tx_lng': 119.305966, 'tx_lat': 26.091637, 'area': '东街口', 'addr': '鼓楼区五四路128号王府井百货6楼', 'logo': 'https://img.meituan.net/w.h/msmerchant/2d316f4ecf7ffc0090975d0776591427330668.jpg'}
{'name': '古千川艺厕所串串香（三坊七巷店）', 'id': 74684489, 'comments': 4254, 'price': 41.0, 'star': 3.8, 'type': '串串香', 'tx_lng': 119.299193, 'tx_lat': 26.080751, 'area': '东街口/三坊七巷', 'addr': '鼓楼区吉庇路54号（食鼎记私房菜对面）', 'logo': 'https://img.meituan.net/w.h/msmerchant/c54cd160600365a89219982ff337809a251556.jpg'}
{'name': '石山水美式餐厅（东街店）', 'id': 1461092, 'comments': 2602, 'price': 88.0, 'star': 4.2, 'type': '牛排', 'tx_lng': 119.30052, 'tx_lat': 26.08638, 'area': '乌山/冠亚广场', 'addr': '鼓楼区东街14号闽辉大厦1楼（近海峡影城）', 'logo': 'http://p0.meituan.net/w.h/mogu/628c5783beaaa1b77afa9ed8d2d3415e82071.png'}
{'name': '萨贝尔（东百观景餐厅）', 'id': 832669, 'comments': 3605, 'price': 93.0, 'star': 4.4, 'type': '披萨', 'tx_lng': 119.298895, 'tx_lat': 26.084938, 'area': '东街口/三坊七巷', 'addr': '鼓楼区八一七北路84-88号东百中心9楼', 'logo': 'http://p0.meituan.net/w.h/apiback/b504be5b47f70899e2824cf16589e4b8159778.jpg'}
{'name': '这里有意式料理（西湖店）', 'id': 40823429, 'comments': 739, 'price': 54.0, 'star': 5.0, 'type': '意大利菜', 'tx_lng': 119.2907, 'tx_lat': 26.0894, 'area': '左海/西湖公园', 'addr': '鼓楼区通湖路39号湖景花园05#商场（西湖影剧院斜对面）', 'logo': 'http://p0.meituan.net/w.h/mogu/bcfae7bffd78b64a5d3e98d17d9d29fa257572.jpg'}
{'name': '海天盛宴mini迷你（福州广场店）', 'id': 160169655, 'comments': 1163, 'price': 254.0, 'star': 4.7, 'type': '海鲜自助', 'tx_lng': 119.307827, 'tx_lat': 26.097196, 'area': '温泉公园/福州广场', 'addr': '鼓楼区五四路149号香榭丽都大厦一楼（福州广场内临近五四路）', 'logo': 'http://p1.meituan.net/w.h/mogu/7800c8f77423d76047f034a609cf8dbe56588.jpg'}
{'name': '半岛翡丽海鲜自助餐厅', 'id': 80156378, 'comments': 1192, 'price': 406.0, 'star': 4.8, 'type': '海鲜自助', 'tx_lng': 119.30297, 'tx_lat': 26.09471, 'area': '五四路', 'addr': '鼓楼区湖东路宏利大厦背后观风亭街23号（公正台湾美食城二楼）', 'logo': 'https://img.meituan.net/w.h/msmerchant/3570e8493c524db63f4856b40219be9e385226.jpg'}
{'name': '杨大宝天天牛鲜馆（井大店）', 'id': 162185730, 'comments': 182, 'price': 64.0, 'star': 4.8, 'type': '牛肉火锅', 'tx_lng': 119.304011, 'tx_lat': 26.088829, 'area': '省立/旗汛口', 'addr': '鼓楼区井大路72号建银综合楼一层8号店', 'logo': 'https://img.meituan.net/w.h/msmerchant/42ac32d5f39e90694245a2a459bff5b7128396.jpg'}
{'name': '阿楷·乡村鱼蛙馆', 'id': 1457001, 'comments': 1761, 'price': 66.0, 'star': 4.2, 'type': '鱼火锅', 'tx_lng': 119.295528, 'tx_lat': 26.086534, 'area': '左海/西湖公园', 'addr': '鼓楼区杨桥路双抛桥二里4-6号楼25号店面（渔家小寨旁）', 'logo': 'http://p1.meituan.net/w.h/mogu/b20d44ffbd071780a3d9e98b989f2b0644042.jpg'}
{'name': '华莱士（冠亚店）', 'id': 1875000, 'comments': 2464, 'price': 19.0, 'star': 4.6, 'type': '汉堡', 'tx_lng': 119.30052, 'tx_lat': 26.077942, 'area': '东街口/三坊七巷', 'addr': '鼓楼区冠亚广场3座9号店面（近乌山路）', 'logo': 'http://p1.meituan.net/w.h/deal/__48514321__7907470.jpg'}
{'name': '华莱士（小柳店）', 'id': 2658814, 'comments': 3386, 'price': 19.0, 'star': 4.4, 'type': '汉堡', 'tx_lng': 119.289768, 'tx_lat': 26.075564, 'area': '黎明/小柳市场', 'addr': '鼓楼区柳河路1号13店面（小柳农贸市场对面）', 'logo': 'http://p1.meituan.net/w.h/deal/__48514321__7907470.jpg'}
{'name': '华莱士（杨桥店）', 'id': 832417, 'comments': 1601, 'price': 19.0, 'star': 5.0, 'type': '快餐', 'tx_lng': 119.284606, 'tx_lat': 26.083146, 'area': '左海/西湖公园', 'addr': '鼓楼区杨桥中路陆庄花园5号楼10#店面（黑桃A防脱发再生对面）', 'logo': 'http://p1.meituan.net/w.h/deal/__48514321__7907470.jpg'}
{'name': '华莱士（三坊七巷店）', 'id': 836422, 'comments': 2164, 'price': 16.0, 'star': 4.8, 'type': '汉堡', 'tx_lng': 119.29685, 'tx_lat': 26.082168, 'area': '东街口/三坊七巷', 'addr': '鼓楼区南后街58号店（文儒坊旁）', 'logo': 'http://p1.meituan.net/w.h/deal/ff69f483656b4618b224d4736c0822ba74891.jpg'}
{'name': '蜀九香（龙华天桥店）', 'id': 77433681, 'comments': 2575, 'price': 144.0, 'star': 3.0, 'type': '川味火锅', 'tx_lng': 119.310298, 'tx_lat': 26.077827, 'area': '东街口', 'addr': '鼓楼区五一北路184号利嘉大世界一层（龙华天桥旁）', 'logo': 'https://img.meituan.net/w.h/msmerchant/1fc142620e4f2dbd997acea6115f32331926064.jpg'}
{'name': '周麻婆（五一店）', 'id': 68887606, 'comments': 176, 'price': 34.0, 'star': 3.6, 'type': '川菜', 'tx_lng': 119.309722, 'tx_lat': 26.079976, 'area': '东街口', 'addr': '鼓楼区五一北路156号水部综合楼二楼（鼓楼医院对面）', 'logo': 'http://p0.meituan.net/w.h/mogu/9b6a107f407b09c4ee839b234d40f4d698817.jpg'}
{'name': '醉得意（东街口店）', 'id': 182405730, 'comments': 28, 'price': 41.0, 'star': 4.1, 'type': '福州菜', 'tx_lng': 119.300367, 'tx_lat': 26.084225, 'area': '鼓楼区', 'addr': '鼓楼区八一七北路东街口地下商业街负二层069091号商铺', 'logo': 'https://img.meituan.net/w.h/msmerchant/a3970ad455ccb454a394f353e5c61119123522.png'}
{'name': '周麻婆（井大店）', 'id': 4124279, 'comments': 436, 'price': 34.0, 'star': 4.6, 'type': '川菜', 'tx_lng': 119.304725, 'tx_lat': 26.088375, 'area': '省立/旗汛口', 'addr': '鼓楼区井大路22号（与庆城路交口东南角光复新村6座2层）', 'logo': 'http://p1.meituan.net/w.h/mogu/fe23de84a2449b22e1351418f6d1ce19857363.jpg'}
{'name': 'helens（五一广场商场店）', 'id': 177448735, 'comments': 2, 'price': 50.0, 'star': 3.5, 'type': '西餐', 'tx_lng': 119.308385, 'tx_lat': 26.075596, 'area': '五一广场/古田路', 'addr': '鼓楼区古田路32号西侧二楼（五一广场于山堂西侧）', 'logo': 'http://p0.meituan.net/w.h/scarlett/c2993e805b516a1ac6735da3634b3eea279362.png'}
{'name': '澳牛鲜奶吧（福新店）', 'id': 5231227, 'comments': 359, 'price': 11.0, 'star': 4.0, 'type': '奶茶/果汁', 'tx_lng': 119.322013, 'tx_lat': 26.0809, 'area': '五一广场/古田路', 'addr': '鼓楼区福新中路55号（帝苑歌城对面，清口清汤面旁边）', 'logo': 'http://p0.meituan.net/w.h/deal/f08784b58adff42bfe4b65e2b5a56d44248907.jpg'}
{'name': '华莱士（黎明店）', 'id': 832421, 'comments': 2976, 'price': 19.0, 'star': 4.1, 'type': '汉堡', 'tx_lng': 119.287265, 'tx_lat': 26.068703, 'area': '黎明/小柳市场', 'addr': '鼓楼区黎明茉莉园13号楼16号店', 'logo': 'http://p0.meituan.net/w.h/deal/__48514320__3813181.jpg'}
{'name': '玛格利塔（六一体验店）', 'id': 81954432, 'comments': 82, 'price': 23.0, 'star': 4.2, 'type': '披萨', 'tx_lng': 119.318929, 'tx_lat': 26.077229, 'area': '五一广场/古田路', 'addr': '鼓楼区六一环岛中城都市花园8号楼一层02、03号店面', 'logo': 'http://p0.meituan.net/w.h/deal/020baea36f78a8145867b8d5bdca302a311035.jpg'}
{'name': '醉得意（东百中心店）', 'id': 163499797, 'comments': 304, 'price': 39.0, 'star': 3.7, 'type': '福州菜', 'tx_lng': 119.298671, 'tx_lat': 26.085014, 'area': '东街口/三坊七巷', 'addr': '鼓楼区东街口八一七北路88号东百中心A馆10楼观景台（近瞭望台美食城内）', 'logo': 'https://img.meituan.net/w.h/msmerchant/1e0df1fb6145d6fd1d2874f079b1c57c349815.jpg'}
{'name': '醉得意（省府店）', 'id': 40911903, 'comments': 457, 'price': 31.0, 'star': 3.7, 'type': '福建菜', 'tx_lng': 119.29757, 'tx_lat': 26.087058, 'area': '左海/西湖公园', 'addr': '鼓楼区省府路50号B座综合二层2#店（85度c面包店旁）', 'logo': 'http://p1.meituan.net/w.h/mogu/7c98841e939bf1394ebfa7920390b0dc695640.png'}
{'name': '周麻婆（达明店）', 'id': 4527634, 'comments': 720, 'price': 39.0, 'star': 4.1, 'type': '川菜', 'tx_lng': 119.296008, 'tx_lat': 26.087249, 'area': '左海/西湖公园', 'addr': '鼓楼区达明路31号2楼（易佰旅店旁）', 'logo': 'http://p0.meituan.net/w.h/mogu/9b6a107f407b09c4ee839b234d40f4d698817.jpg'}
{'name': '揽季锅物会（水调歌头店）', 'id': 1557975, 'comments': 1254, 'price': 123.0, 'star': 4.2, 'type': '小火锅', 'tx_lng': 119.312232, 'tx_lat': 26.094539, 'area': '温泉公园/福州广场', 'addr': '鼓楼区湖东路288号水调歌头2层', 'logo': 'https://img.meituan.net/w.h/msmerchant/b5b1332773aeb75a32d7b0b1661ab0de282104.jpg'}
{'name': '华莱士（仙塔店）', 'id': 842936, 'comments': 2804, 'price': 19.0, 'star': 3.6, 'type': '汉堡', 'tx_lng': 119.305359, 'tx_lat': 26.085369, 'area': '省立/旗汛口', 'addr': '鼓楼区仙塔新村4号楼31号店面（近三山大厦）', 'logo': 'http://p1.meituan.net/w.h/deal/__48514321__7907470.jpg'}
{'name': '玛格利塔（善化店）', 'id': 4518040, 'comments': 2041, 'price': 22.0, 'star': 4.6, 'type': '披萨', 'tx_lng': 119.290681, 'tx_lat': 26.084994, 'area': '左海/西湖公园', 'addr': '鼓楼区鼓西街道善化新村8号楼东起第六间（杨桥东路与白马北路交叉口东）', 'logo': 'http://p1.meituan.net/w.h/mogu/8cd9928448b72ce5c59fe21e47943c1662130.jpg'}
{'name': '鱼旨寿司（王府井店）', 'id': 2371825, 'comments': 113, 'price': 77.0, 'star': 4.3, 'type': '日式寿司', 'tx_lng': 119.305521, 'tx_lat': 26.091505, 'area': '东街口', 'addr': '鼓楼区五四路128号王府井百货B1楼', 'logo': 'http://p0.meituan.net/w.h/poi/b87fb9b6f0b27d8114e68cec4f685af8237402.jpg'}
{'name': '片片福·肉片工匠（东街店）', 'id': 167084266, 'comments': 72, 'price': 16.0, 'star': 5.0, 'type': '地方小吃', 'tx_lng': 119.300727, 'tx_lat': 26.087113, 'area': '乌山/冠亚广场', 'addr': '鼓楼区贤南路19号', 'logo': 'http://p0.meituan.net/w.h/mogu/0f7c0a6b2822f9e6f251108e6e523eba445493.jpg'}
{'name': '向阳坊（井大店）', 'id': 2425440, 'comments': 162, 'price': 11.0, 'star': 3.7, 'type': '蛋糕', 'tx_lng': 119.304577, 'tx_lat': 26.088597, 'area': '省立/旗汛口', 'addr': '鼓楼区井大路庆城花园3座8号（井大路与庆城路交叉口）中福广场', 'logo': 'https://img.meituan.net/w.h/msmerchant/1d4703ebe7e8e442d94770d9854d044e499778.jpg'}
{'name': '醉得意（仙塔街店）', 'id': 4841333, 'comments': 424, 'price': 30.0, 'star': 3.5, 'type': '快餐', 'tx_lng': 119.305955, 'tx_lat': 26.083079, 'area': '津泰路/协和医院', 'addr': '鼓楼区仙塔街与城守前路交汇处津泰商厦1层', 'logo': 'http://p1.meituan.net/w.h/mogu/7c98841e939bf1394ebfa7920390b0dc695640.png'}
{'name': '玛格利塔（湖东路店）', 'id': 5999673, 'comments': 4316, 'price': 21.0, 'star': 4.6, 'type': '披萨', 'tx_lng': 119.30297, 'tx_lat': 26.092692, 'area': '东街口', 'addr': '鼓楼区湖东路165-9华闽大厦1号店面（湖东路与井大路交叉口）', 'logo': 'http://p1.meituan.net/w.h/mogu/8cd9928448b72ce5c59fe21e47943c1662130.jpg'}
{'name': '向阳坊（凤湖店）', 'id': 4979536, 'comments': 113, 'price': 11.0, 'star': 4.7, 'type': '蛋糕', 'tx_lng': 119.27939, 'tx_lat': 26.066742, 'area': '乌山西路', 'addr': '鼓楼区首凤路21号凤湖新城五区一层5号店面', 'logo': 'http://p0.meituan.net/w.h/mogu/e2c1bdd9600c499ef0c5168572d4e25b86943.jpg'}
{'name': '1718海鲜火锅（五四路华福店）', 'id': 52173927, 'comments': 3014, 'price': 104.0, 'star': 5.0, 'type': '海鲜火锅', 'tx_lng': 119.306566, 'tx_lat': 26.098653, 'area': '温泉公园/福州广场', 'addr': '鼓楼区五四路173号新华福广场b座2楼', 'logo': 'http://p0.meituan.net/w.h/deal/2571754fb7e21fc40cf53ed0db8edd8d140775.jpg'}
{'name': '同君福大酒楼', 'id': 830054, 'comments': 200, 'price': 102.0, 'star': 4.0, 'type': '福州菜', 'tx_lng': 119.326323, 'tx_lat': 26.079067, 'area': '五一广场/古田路', 'addr': '鼓楼区长乐北路218号（国一大厦3楼和4楼）', 'logo': 'http://p0.meituan.net/w.h/mogu/4a50dae6154beab1bcbfb690195758d3107561.jpg'}
{'name': '御品一刀（六一北路店）', 'id': 157148226, 'comments': 111, 'price': 20.0, 'star': 3.4, 'type': '凉皮/凉粉', 'tx_lng': 119.318782, 'tx_lat': 26.077834, 'area': '五一广场/古田路', 'addr': '鼓楼区六一北路626号', 'logo': 'http://p1.meituan.net/w.h/mogu/47aafcf615654cd3c63bf3101ee8df7e145750.jpg'}
{'name': '佳客来（湖东路店）', 'id': 834097, 'comments': 952, 'price': 50.0, 'star': 4.6, 'type': '牛排', 'tx_lng': 119.30001, 'tx_lat': 26.09248, 'area': '鼓屏路/屏山公园', 'addr': '鼓楼区湖东路118号社会主义学院旁(近中国移动)', 'logo': 'http://p1.meituan.net/w.h/deal/be0bb596f2cb2e06c97854a254927ed6293381.jpg'}
{'name': '西屿龙·会席自助料理（大洋晶典店）', 'id': 99323758, 'comments': 492, 'price': 254.0, 'star': 3.5, 'type': '日料自助', 'tx_lng': 119.30006, 'tx_lat': 26.076211, 'area': '东街口/三坊七巷', 'addr': '鼓楼区八一七北路268号大洋晶典5层', 'logo': 'http://p1.meituan.net/w.h/msmerchant/a15cc9c71eadb374493151ab983d789b153626.jpg'}
{'name': '金大叔韩国料理', 'id': 169245258, 'comments': 224, 'price': 49.0, 'star': 5.0, 'type': '韩国菜', 'tx_lng': 119.299363, 'tx_lat': 26.087131, 'area': '乌山/冠亚广场', 'addr': '鼓楼区鼓东街道八一七北路89号贤南商厦1层11号店面', 'logo': 'http://p0.meituan.net/w.h/deal/9f1989d650536a475202d0a1b4b5770240336.jpg'}
{'name': '五洲佳豪酒楼', 'id': 1413098, 'comments': 2100, 'price': 136.0, 'star': 4.8, 'type': '福州菜', 'tx_lng': 119.280043, 'tx_lat': 26.078409, 'area': '黎明/小柳市场', 'addr': '鼓楼区西二环218号（牡丹大酒店旁）', 'logo': 'http://p1.meituan.net/w.h/deal/2355da14fc4ab1867603fb3080006395149369.jpg'}
{'name': '小肥羊（福州中福店）', 'id': 834012, 'comments': 3697, 'price': 80.0, 'star': 3.7, 'type': '羊肉火锅', 'tx_lng': 119.30485, 'tx_lat': 26.08687, 'area': '省立/旗汛口', 'addr': '鼓楼区东街92号中福广场一、二层', 'logo': 'https://img.meituan.net/w.h/msmerchant/478cf50a1e1cb505677849237ec2736f689508.jpg'}
{'name': '世纪金源大饭店富士山日本料理', 'id': 164398941, 'comments': 822, 'price': 0.0, 'star': 5.0, 'type': '日料自助', 'tx_lng': 119.310026, 'tx_lat': 26.098777, 'area': '温泉公园/福州广场', 'addr': '鼓楼区温泉公园路59号（温泉公园旁）', 'logo': 'http://p1.meituan.net/w.h/mogu/56ce893a33359561c112cbed00700bc624826.jpg'}
{'name': '华莱士（福屿店）', 'id': 40586652, 'comments': 1480, 'price': 21.0, 'star': 4.1, 'type': '汉堡', 'tx_lng': 119.281931, 'tx_lat': 26.07971, 'area': '鼓楼区', 'addr': '鼓楼区黎明福一村中利花园7楼M店面', 'logo': 'http://p0.meituan.net/w.h/deal/__48514320__3813181.jpg'}
{'name': '第5大道（井大路店）', 'id': 2410672, 'comments': 739, 'price': 47.0, 'star': 5.0, 'type': '披萨', 'tx_lng': 119.304345, 'tx_lat': 26.089002, 'area': '东街口', 'addr': '鼓楼区井大路55-4号（庆城公交站旁）', 'logo': 'http://p0.meituan.net/w.h/deal/__48314974__3309453.jpg'}
{'name': '涨茶（井大路店）', 'id': 182434468, 'comments': 196, 'price': 12.0, 'star': 5.0, 'type': '奶茶/果汁', 'tx_lng': 119.303493, 'tx_lat': 26.09209, 'area': '东街口', 'addr': '鼓楼区井大路205-8号店面', 'logo': 'https://img.meituan.net/w.h/msmerchant/bba9cea8327b57943995eca2130d5caf38897.jpg'}
{'name': '牛享.壹品鲜牛小黄牛火锅', 'id': 179500161, 'comments': 32, 'price': 81.0, 'star': 3.7, 'type': '牛肉火锅', 'tx_lng': 119.306941, 'tx_lat': 26.083401, 'area': '津泰路/协和医院', 'addr': '鼓楼区津泰路城守前路11-7号', 'logo': 'https://img.meituan.net/w.h/msmerchant/da7e7acb57a3a113041192d0aa096b6917913.jpg'}
{'name': '醉南拳客家菜（省立店）', 'id': 173617808, 'comments': 50, 'price': 51.0, 'star': 4.1, 'type': '客家菜', 'tx_lng': 119.307484, 'tx_lat': 26.08635, 'area': '省立/旗汛口', 'addr': '鼓楼区东街129号航空大厦二层', 'logo': 'http://p0.meituan.net/w.h/mogu/4106e5c2593cef3696dac259a5f7685030399.jpg'}
{'name': '华丰贺氏（仙塔店）', 'id': 163522305, 'comments': 57, 'price': 18.0, 'star': 4.0, 'type': '蛋糕', 'tx_lng': 119.30597, 'tx_lat': 26.08294, 'area': '津泰路/协和医院', 'addr': '鼓楼区仙塔街125号（津泰商厦楼下）', 'logo': 'http://p1.meituan.net/w.h/poi/c4fd008aadc5473fad918532c4023ef5129024.jpg'}
{'name': '澳牛鲜奶吧（东水路店）', 'id': 4058148, 'comments': 328, 'price': 11.0, 'star': 4.0, 'type': '奶茶/果汁', 'tx_lng': 119.31528, 'tx_lat': 26.083593, 'area': '东街口', 'addr': '鼓楼区东水路71-1号', 'logo': 'http://p0.meituan.net/w.h/deal/f08784b58adff42bfe4b65e2b5a56d44248907.jpg'}
{'name': '一坐城|咖啡意餐（东街口店）', 'id': 99750684, 'comments': 231, 'price': 46.0, 'star': 5.0, 'type': '咖啡厅', 'tx_lng': 119.302783, 'tx_lat': 26.088555, 'area': '省立/旗汛口', 'addr': '鼓楼区卫前街58号（近省立医院，一中校区）', 'logo': 'https://img.meituan.net/w.h/msmerchant/035e5758ab39015cdab7f3425f54784e91831.jpg'}
{'name': '猪吉面缘（安泰中心店）', 'id': 1875188, 'comments': 525, 'price': 24.0, 'star': 4.7, 'type': '日式面条', 'tx_lng': 119.301208, 'tx_lat': 26.081871, 'area': '津泰路/协和医院', 'addr': '鼓楼区八一七北路187号安泰中心B区第三通道（近安泰新华图书城）', 'logo': 'http://p1.meituan.net/w.h/mogu/bff14512c7ca49ecba6ee2fdfa0bdf6d114428.jpg'}
{'name': '麦斯晨菲老香港蛋糕（道山路店）', 'id': 168901735, 'comments': 65, 'price': 13.0, 'star': 3.9, 'type': '港台甜品', 'tx_lng': 119.300689, 'tx_lat': 26.078363, 'area': '东街口/三坊七巷', 'addr': '鼓楼区道山路3号（省妇幼大门对面）', 'logo': 'https://img.meituan.net/w.h/msmerchant/d56e66388b4fe80da7e8031287f7a2be15459.jpg'}
{'name': '羊家将羊肉汤（杨桥东路店）', 'id': 169179263, 'comments': 235, 'price': 22.0, 'star': 4.7, 'type': '羊肉汤', 'tx_lng': 119.294005, 'tx_lat': 26.085628, 'area': '左海/西湖公园', 'addr': '鼓楼区杨桥东路118号（宏扬新城门口巷子内，荣杰便利斜对面）', 'logo': 'http://p1.meituan.net/w.h/mogu/f26362b117c2e4ee68af640580fbfba079616.jpg'}
{'name': '永和大王（东街店）', 'id': 835121, 'comments': 629, 'price': 25.0, 'star': 3.2, 'type': '快餐', 'tx_lng': 119.304817, 'tx_lat': 26.086194, 'area': '省立/旗汛口', 'addr': '鼓楼区东街59-3号三山大厦一层（旗汛口车站斜对面）', 'logo': 'https://img.meituan.net/w.h/msmerchant/52c924286e00f7a050595b5edf59c898126436.jpg'}
{'name': '华丰贺氏（鼓西店）', 'id': 1153389, 'comments': 903, 'price': 15.0, 'star': 4.2, 'type': '蛋糕', 'tx_lng': 119.29701, 'tx_lat': 26.08926, 'area': '左海/西湖公园', 'addr': '鼓楼区鼓西路70号（慈铭门诊旁）', 'logo': 'http://p1.meituan.net/w.h/deal/201206/19/1_0619162455.jpg'}
{'name': '阿弥陀佛珍素馆（三坊七巷店）', 'id': 113395284, 'comments': 709, 'price': 152.0, 'star': 4.1, 'type': '素食', 'tx_lng': 119.293471, 'tx_lat': 26.082335, 'area': '东街口/三坊七巷', 'addr': '鼓楼区三坊七巷通湖路251号正祥望园（消防博物馆与通湖公寓交汇处正对面）', 'logo': 'http://p1.meituan.net/w.h/mogu/7ab681e07b899efc92bc544f72553ad258068.jpg'}
{'name': 'ALOKA OYSTER BAR阿罗卡蚝门料理', 'id': 4519571, 'comments': 56, 'price': 227.0, 'star': 4.8, 'type': '西餐', 'tx_lng': 119.304653, 'tx_lat': 26.07449, 'area': '五一广场/古田路', 'addr': '鼓楼区新权南路12号金福商厦1号店面（香格里拉酒店斜对面）', 'logo': 'https://img.meituan.net/w.h/msmerchant/87560d2b63b212a5185ad2c56a93f56a1196107.jpg'}
{'name': '阿楷·I那年', 'id': 5070145, 'comments': 307, 'price': 61.0, 'star': 4.0, 'type': '私房菜', 'tx_lng': 119.295262, 'tx_lat': 26.086488, 'area': '左海/西湖公园', 'addr': '鼓楼区鼓西街道达明路双抛桥一里21-22店面（近渔家小寨）', 'logo': 'http://p0.meituan.net/w.h/mogu/dd9a4cc469134354985fd8cbb3a8af2199933.jpg'}
{'name': '华莱士（鼓屏店）', 'id': 5468273, 'comments': 2382, 'price': 20.0, 'star': 4.2, 'type': '汉堡', 'tx_lng': 119.29702, 'tx_lat': 26.095339, 'area': '鼓屏路/屏山公园', 'addr': '鼓楼区鼓屏路122号（四季如春酒店与星星河教育之间，与星星河隔2个店铺）', 'logo': 'http://p1.meituan.net/w.h/deal/__48514321__7907470.jpg'}
{'name': '鸳鸯阁火锅（富通店）', 'id': 179180270, 'comments': 5, 'price': 158.0, 'star': 4.5, 'type': '火锅', 'tx_lng': 119.2864, 'tx_lat': 26.070717, 'area': '乌山西路', 'addr': '鼓楼区洪山镇西二环中路475号富通大厦1层101室', 'logo': 'https://img.meituan.net/w.h/msmerchant/3b0a8075f8679a7e73c9fcc2ea86e6f553326.jpg'}
{'name': 'Double Time Restaurant & Lounge 魔时西餐厅·酒吧（王府井店）', 'id': 99803441, 'comments': 49, 'price': 118.0, 'star': 5.0, 'type': '意大利菜', 'tx_lng': 119.305439, 'tx_lat': 26.09108, 'area': '东街口', 'addr': '鼓楼区五四路王府井百货南面外街一楼（星巴克旁）', 'logo': 'http://p0.meituan.net/w.h/msmerchant/b855af64bd4bac586e542d0bf49aaa5e278471.jpg'}
{'name': '新华都海物会（五四店）', 'id': 150560913, 'comments': 1169, 'price': 155.0, 'star': 4.6, 'type': '海鲜', 'tx_lng': 119.30618, 'tx_lat': 26.09631, 'area': '五四路', 'addr': '鼓楼区五四路162号华城国际五楼（电梯出口处）', 'logo': 'https://img.meituan.net/w.h/msmerchant/8fd9f5e83872f968676609cb156139e439422.jpg'}
{'name': '极面道（王府井店）', 'id': 105986955, 'comments': 141, 'price': 41.0, 'star': 4.3, 'type': '面条', 'tx_lng': 119.305539, 'tx_lat': 26.091567, 'area': '东街口', 'addr': '鼓楼区五四路128号王府井百货负一楼（近闽江饭店侧入口扶梯下负一层）', 'logo': 'http://p0.meituan.net/w.h/msmerchant/55c05c8814b6689484bb1411de40060a694730.jpg'}
{'name': '安德鲁森（福新路店）', 'id': 72052668, 'comments': 20, 'price': 12.0, 'star': 3.5, 'type': '蛋糕', 'tx_lng': 119.318039, 'tx_lat': 26.080614, 'area': '五一广场/古田路', 'addr': '鼓楼区水部街道福新路297号（综合楼底层106店面）', 'logo': 'http://p0.meituan.net/w.h/mogu/38814d17424817e932f851bff574981536264.jpg'}
{'name': '研友猪排饭（五一北路店）', 'id': 162846255, 'comments': 31, 'price': 40.0, 'star': 4.4, 'type': '日本菜', 'tx_lng': 119.311533, 'tx_lat': 26.076848, 'area': '鼓楼区', 'addr': '鼓楼区鼓楼区五一北路171-2号新都汇花园广场底层商铺（在五一北路古田支路交叉路口旁边）', 'logo': 'https://img.meituan.net/w.h/msmerchant/ed78bce84a89bedc0937532d0ce4f104159545.jpg'}
{'name': '四季·映山红', 'id': 1875134, 'comments': 3949, 'price': 104.0, 'star': 3.8, 'type': '海鲜火锅', 'tx_lng': 119.29816, 'tx_lat': 26.08048, 'area': '东街口/三坊七巷', 'addr': '鼓楼区吉庇路80号', 'logo': 'https://img.meituan.net/w.h/msmerchant/fda43a6fb440709ca61698a8d651718e65137.jpg'}
{'name': '石山水波士顿美式餐厅（东百中心店）', 'id': 163563324, 'comments': 79, 'price': 81.0, 'star': 4.1, 'type': '牛排', 'tx_lng': 119.298914, 'tx_lat': 26.08488, 'area': '鼓楼区', 'addr': '鼓楼区八一七北路88号东百中心A馆9层', 'logo': 'http://p0.meituan.net/w.h/mogu/dbfff86332ee4981dd52696ffa3624ba31165.jpg'}
{'name': '蹄膀破店（南门店）', 'id': 1874937, 'comments': 920, 'price': 48.0, 'star': 3.8, 'type': '福州菜', 'tx_lng': 119.30198, 'tx_lat': 26.075725, 'area': '东街口/三坊七巷', 'addr': '鼓楼区南门兜西营里3号茶叶批发市场二楼（协和医院新门诊大楼右侧斜对面）', 'logo': 'http://p0.meituan.net/w.h/mogu/bc0ebff5d4b58d739744f173accfd9d390855.jpg'}
{'name': '刘福记北京烤鸭（西洪店）', 'id': 4892028, 'comments': 8956, 'price': 32.0, 'star': 4.2, 'type': '烤鸭', 'tx_lng': 119.286075, 'tx_lat': 26.085926, 'area': '左海/西湖公园', 'addr': '鼓楼区西洪路108号（农业银行取款机旁、西门永辉超市斜对面）', 'logo': 'https://img.meituan.net/w.h/msmerchant/211d2a9f6cb55ed79f316aaf108f4f0a4690417.jpg'}
{'name': '正豪大大鸡排', 'id': 161602667, 'comments': 55, 'price': 20.0, 'star': 4.9, 'type': '小吃快餐', 'tx_lng': 119.299095, 'tx_lat': 26.08504, 'area': '乌山/冠亚广场', 'addr': '鼓楼区八一七北路88号东百中心A馆负二层', 'logo': 'https://img.meituan.net/w.h/msmerchant/f9590745b997710cb201a9213f5ec0f25986304.jpg'}
{'name': '旗袍咖啡（三坊七巷店）', 'id': 90667135, 'comments': 452, 'price': 42.0, 'star': 5.0, 'type': '咖啡厅', 'tx_lng': 119.298255, 'tx_lat': 26.080444, 'area': '东街口/三坊七巷', 'addr': '鼓楼区三坊七巷吉庇巷78号', 'logo': 'http://p0.meituan.net/w.h/merchantpic/323e260f6e9a05b672bdfbd70faaf6bd116293.jpg'}
{'name': '芋时代（东百店）', 'id': 182640261, 'comments': 44, 'price': 12.0, 'star': 5.0, 'type': '奶茶/果汁', 'tx_lng': 119.300384, 'tx_lat': 26.084097, 'area': '乌山/冠亚广场', 'addr': '鼓楼区东街街道八一七北路东街口地下商业街B1F层075-2号商铺（东百负二楼）', 'logo': 'http://p0.meituan.net/w.h/bbia/32e6ce52207953b7f7eedb8adf865f9025493.jpg'}
{'name': '烤动量', 'id': 91958575, 'comments': 777, 'price': 65.0, 'star': 4.7, 'type': '烧烤', 'tx_lng': 119.303028, 'tx_lat': 26.094773, 'area': '五四路', 'addr': '鼓楼区鼓东街道观风亭23号，观风亭新苑2-4号群楼一楼（亭子对面）', 'logo': 'http://p0.meituan.net/w.h/mogu/98b4c10597c9b26d283ce8f9d1065835231524.jpg'}
{'name': '圆月生猛烤物音乐串吧（古田路店）', 'id': 179077233, 'comments': 6, 'price': 108.0, 'star': 4.5, 'type': '烤串', 'tx_lng': 119.315407, 'tx_lat': 26.076166, 'area': '五一广场/古田路', 'addr': '鼓楼区古田路121-2号壹品足道旁', 'logo': 'http://p0.meituan.net/w.h/mogu/f58cad04c57879ae13e600d4c784b30924347.jpg'}
{'name': '萨贝尔意式餐厅（正祥店）', 'id': 70562676, 'comments': 29, 'price': 72.0, 'star': 3.5, 'type': '披萨', 'tx_lng': 119.310696, 'tx_lat': 26.078611, 'area': '东街口', 'addr': '鼓楼区五一北路153号正祥中心1层', 'logo': 'http://p1.meituan.net/w.h/mogu/23c9322d23cfd2c4d6ac1b92042be97385020.jpg'}
{'name': '华丰贺氏（道山店）', 'id': 157774320, 'comments': 45, 'price': 18.0, 'star': 3.6, 'type': '蛋糕', 'tx_lng': 119.300477, 'tx_lat': 26.07846, 'area': '东街口/三坊七巷', 'addr': '鼓楼区道山路新村2号楼D2-D4店面（省妇幼斜对面）', 'logo': 'http://p0.meituan.net/w.h/deal/20c7769175c50df02d6f0d6e00125e1356289.jpg'}
{'name': '鲜到鲜果（道山店）', 'id': 40282066, 'comments': 9, 'price': 27.0, 'star': 4.0, 'type': '水果', 'tx_lng': 119.29746, 'tx_lat': 26.0779, 'area': '东街口/三坊七巷', 'addr': '鼓楼区道山路189号', 'logo': 'http://p0.meituan.net/w.h/scarlett/1e9c3bc30a688b063c0fc0cda615154112408.jpg'}
{'name': 'Showroom Cafe（电影机械厂店）', 'id': 5306257, 'comments': 294, 'price': 47.0, 'star': 4.6, 'type': '咖啡厅', 'tx_lng': 119.286747, 'tx_lat': 26.077358, 'area': '黎明/小柳市场', 'addr': '鼓楼区柳河路81号省电影机械厂1号厂房', 'logo': 'https://img.meituan.net/w.h/msmerchant/1fb9357ad75817b9cc5d29cf720bc50866807.jpg'}
{'name': 'SUBWAY赛百味', 'id': 101436542, 'comments': 568, 'price': 26.0, 'star': 4.6, 'type': '三明治', 'tx_lng': 119.302126, 'tx_lat': 26.086457, 'area': '乌山/冠亚广场', 'addr': '鼓楼区东街主路38-1号', 'logo': 'http://p0.meituan.net/w.h/bbia/4755363b6147c7fdce58f4ccd60811d8126419.jpg'}
{'name': 'mihimihi（东百店）', 'id': 163110157, 'comments': 1685, 'price': 14.0, 'star': 4.5, 'type': '西式甜品', 'tx_lng': 119.299127, 'tx_lat': 26.08551, 'area': '乌山/冠亚广场', 'addr': '鼓楼区八一七北路82号东百中心负二楼', 'logo': 'https://img.meituan.net/w.h/msmerchant/53a615b76ccb2ad26d43318b4ff4da0c88023.jpg'}
{'name': '单点极致（三坊七巷店）', 'id': 179300976, 'comments': 183, 'price': 16.0, 'star': 5.0, 'type': '奶茶/果汁', 'tx_lng': 119.296388, 'tx_lat': 26.085529, 'area': '东街口/三坊七巷', 'addr': '鼓楼区杨桥东路13-3号（杨桥东路与南后街交叉口三坊七巷店旁）', 'logo': 'http://p1.meituan.net/w.h/mogu/a8f5a4131e5c770ea67d2e9c38f4feb696800.jpg'}
{'name': '台湾森山仙草（井大店）', 'id': 168862316, 'comments': 192, 'price': 17.0, 'star': 3.7, 'type': '饮品店', 'tx_lng': 119.30436, 'tx_lat': 26.089066, 'area': '东街口', 'addr': '鼓楼区井大路庆成花园外围55-6号店（庆城公交站）', 'logo': 'http://p1.meituan.net/w.h/mogu/353cd2a72b2c084d912faf8e160bc3f4217718.jpg'}
{'name': '六婆串串香火锅（达明路旗舰店）', 'id': 156646068, 'comments': 729, 'price': 53.0, 'star': 4.3, 'type': '串串香', 'tx_lng': 119.29556, 'tx_lat': 26.087895, 'area': '左海/西湖公园', 'addr': '鼓楼区华大街道达明路138号新村9座号店面', 'logo': 'http://p1.meituan.net/w.h/deal/97c2c26471d084aee8863926a347311453250.jpg'}
{'name': '舊巷南（三坊七巷店）', 'id': 125052465, 'comments': 41, 'price': 20.0, 'star': 4.0, 'type': '鱼丸', 'tx_lng': 119.297773, 'tx_lat': 26.078919, 'area': '东街口/三坊七巷', 'addr': '鼓楼区澳门路41号林则徐纪念馆正对面', 'logo': 'https://img.meituan.net/w.h/msmerchant/bb5edc581d97ad1e70dc9d4f050f428d386386.jpg'}
{'name': '1718海鲜火锅（融侨二店）', 'id': 2653729, 'comments': 805, 'price': 131.0, 'star': 5.0, 'type': '海鲜火锅', 'tx_lng': 119.270372, 'tx_lat': 26.068045, 'area': '福州大学/西禅寺', 'addr': '鼓楼区凤湖路融侨锦江B区55铺位', 'logo': 'http://p1.meituan.net/w.h/mogu/b75221cf47a3a0d73d846087d7c8a01a123707.jpg'}
{'name': '安德鲁森（道山店）', 'id': 4628637, 'comments': 27, 'price': 12.0, 'star': 4.4, 'type': '蛋糕', 'tx_lng': 119.297425, 'tx_lat': 26.077889, 'area': '东街口/三坊七巷', 'addr': '鼓楼区道山路189号乌山丽景2#楼03号店面（福建省妇幼保健院对面）', 'logo': 'http://p1.meituan.net/w.h/deal/__48314576__2107295.jpg'}
{'name': '华莱士（西洪店）', 'id': 1876056, 'comments': 2841, 'price': 20.0, 'star': 4.0, 'type': '快餐', 'tx_lng': 119.285074, 'tx_lat': 26.085671, 'area': '左海/西湖公园', 'addr': '鼓楼区西洪路152号', 'logo': 'http://p0.meituan.net/w.h/deal/__48514320__3813181.jpg'}
{'name': '闽南公牛馆自助牛肉火锅（正祥店）', 'id': 185744235, 'comments': 12, 'price': 87.0, 'star': 3.0, 'type': '火锅自助', 'tx_lng': 119.310967, 'tx_lat': 26.077848, 'area': '正祥中心', 'addr': '鼓楼区五一北路165号正祥中心1楼（星巴克旁）', 'logo': 'https://img.meituan.net/w.h/msmerchant/75b5610fe31b3a9b150a17a32323298852600.jpg'}
{'name': '华丰贺氏（北大店）', 'id': 1153398, 'comments': 1696, 'price': 15.0, 'star': 4.3, 'type': '蛋糕', 'tx_lng': 119.294675, 'tx_lat': 26.092224, 'area': '左海/西湖公园', 'addr': '鼓楼区北大路169号御西湖13-14号店（西湖福三中对面）', 'logo': 'http://p1.meituan.net/w.h/deal/201206/19/1_0619162455.jpg'}
{'name': 'IT COFFEE', 'id': 41559101, 'comments': 244, 'price': 46.0, 'star': 5.0, 'type': '意大利菜', 'tx_lng': 119.296629, 'tx_lat': 26.081946, 'area': '东街口/三坊七巷', 'addr': '鼓楼区三坊七巷文儒坊9号（东街口南后街）', 'logo': 'http://p0.meituan.net/w.h/dealwatera/65cc0301c8b8582b84a6eaad53ffb627153487.jpg'}
{'name': '拿坡里小镇（冠亚店）', 'id': 41211199, 'comments': 1185, 'price': 60.0, 'star': 3.5, 'type': '西餐', 'tx_lng': 119.300012, 'tx_lat': 26.077674, 'area': '东街口/三坊七巷', 'addr': '鼓楼区冠亚广场美食街4座06号', 'logo': 'https://img.meituan.net/w.h/msmerchant/a729ce54462ce5aea21ecae89d86bb4a172483.jpg'}
{'name': '朝茶【古田支路店】', 'id': 162794342, 'comments': 78, 'price': 15.0, 'star': 4.1, 'type': '奶茶/果汁', 'tx_lng': 119.314665, 'tx_lat': 26.077723, 'area': '鼓楼区', 'addr': '鼓楼区古田支路70号华莱士旁', 'logo': 'http://p0.meituan.net/w.h/mogu/2858bea5ec4e0e5d7e45c41ab09a1afe220267.jpg'}
{'name': '鳗匠', 'id': 160116422, 'comments': 64, 'price': 88.0, 'star': 4.4, 'type': '居酒屋', 'tx_lng': 119.310127, 'tx_lat': 26.086386, 'area': '蒙古营', 'addr': '鼓楼区东大路53号闽台艺文优空间4号楼101店面', 'logo': 'https://img.meituan.net/w.h/msmerchant/f98cf96c8c1be526a4a1f82df4f1f254402940.jpg'}
{'name': '鲜到鲜果（乌山店）', 'id': 97427929, 'comments': 0, 'price': 25.0, 'star': 3.5, 'type': '水果', 'tx_lng': 119.300002, 'tx_lat': 26.075137, 'area': '东街口/三坊七巷', 'addr': '鼓楼区乌山支路26号乌山苑3山小筑向东20米', 'logo': 'http://p0.meituan.net/w.h/scarlett/1e9c3bc30a688b063c0fc0cda615154112408.jpg'}
{'name': '澳牛鲜奶吧（省妇幼店）', 'id': 51307802, 'comments': 205, 'price': 11.0, 'star': 4.3, 'type': '奶茶/果汁', 'tx_lng': 119.300981, 'tx_lat': 26.078552, 'area': '东街口/三坊七巷', 'addr': '鼓楼区道山路1号楼D-5', 'logo': 'http://p0.meituan.net/w.h/deal/f08784b58adff42bfe4b65e2b5a56d44248907.jpg'}
{'name': '醉南拳客家菜（东街口店）', 'id': 165915107, 'comments': 74, 'price': 50.0, 'star': 3.7, 'type': '客家菜', 'tx_lng': 119.300054, 'tx_lat': 26.083354, 'area': '乌山/冠亚广场', 'addr': '鼓楼区八一七北路159-3号', 'logo': 'http://p0.meituan.net/w.h/mogu/4106e5c2593cef3696dac259a5f7685030399.jpg'}
{'name': '食欲侠五谷煎饼果子（省府路店）', 'id': 161080051, 'comments': 399, 'price': 29.0, 'star': 5.0, 'type': '煎饼果子', 'tx_lng': 119.297197, 'tx_lat': 26.087272, 'area': '左海/西湖公园', 'addr': '鼓楼区省府路56号（金皇公寓底商）', 'logo': 'https://img.meituan.net/w.h/msmerchant/0b4329e5b5fa373448e2b1010ca8fee67742716.png'}
{'name': '安德鲁森（五一店）', 'id': 830234, 'comments': 45, 'price': 13.0, 'star': 3.7, 'type': '蛋糕', 'tx_lng': 119.309725, 'tx_lat': 26.08036, 'area': '东街口', 'addr': '鼓楼区五一北路140号店面', 'logo': 'http://p0.meituan.net/w.h/mogu/38814d17424817e932f851bff574981536264.jpg'}
{'name': '横浜家系拉麺 Produced by Suzukiya（大洋百货店）', 'id': 169313711, 'comments': 53, 'price': 50.0, 'star': 5.0, 'type': '日式面条', 'tx_lng': 119.300488, 'tx_lat': 26.084013, 'area': '东街口/三坊七巷', 'addr': '鼓楼区锦巷八一七北路133号大洋百货7楼', 'logo': 'https://img.meituan.net/w.h/msmerchant/f5e68a5258b782184f9ca7261656b1cb1208041.jpg'}
{'name': '半天堂姜母鸭（闽川饭店）', 'id': 158398036, 'comments': 947, 'price': 32.0, 'star': 5.0, 'type': '闽南菜', 'tx_lng': 119.303409, 'tx_lat': 26.092282, 'area': '东街口', 'addr': '鼓楼区井大路209号（七星井新村B16#B17#楼连接体楼下店面）', 'logo': 'http://p0.meituan.net/w.h/mogu/42a2be3e51277d401b0b7aba9ce82bd399584.jpg'}
{'name': '悦华酒店自助餐厅', 'id': 4259692, 'comments': 1072, 'price': 165.0, 'star': 5.0, 'type': '综合自助', 'tx_lng': 119.291678, 'tx_lat': 26.098054, 'area': '左海/西湖公园', 'addr': '鼓楼区华林路11号（福建省政府，西湖宾馆旁）', 'logo': 'http://p1.meituan.net/w.h/mogu/6a4bbaa5a9134a132070d4848faa964316269.png'}
{'name': '周麻婆（三坊七巷店）', 'id': 153317622, 'comments': 63, 'price': 43.0, 'star': 3.1, 'type': '川菜', 'tx_lng': 119.29879, 'tx_lat': 26.080408, 'area': '东街口/三坊七巷', 'addr': '鼓楼区三坊七巷吉庇巷70号院缘之园1层', 'logo': 'http://p0.meituan.net/w.h/mogu/9b6a107f407b09c4ee839b234d40f4d698817.jpg'}
{'name': '令狐冲窑烤活鱼（西洪店）', 'id': 51199745, 'comments': 2580, 'price': 50.0, 'star': 4.0, 'type': '烤鱼', 'tx_lng': 119.28286, 'tx_lat': 26.0848, 'area': '左海/西湖公园', 'addr': '鼓楼区西洪路253-20号西洪新村1号楼底层商场由西往东第1-2间', 'logo': 'http://p1.meituan.net/w.h/bbia/4d202bf53e7667315005de06e924ab2378977.jpg'}
{'name': '百加百炭火烤肉专门店', 'id': 6594594, 'comments': 3567, 'price': 81.0, 'star': 3.7, 'type': '韩式烤肉', 'tx_lng': 119.299578, 'tx_lat': 26.087434, 'area': '东街口/三坊七巷', 'addr': '鼓楼区鼓楼东街口卫前街113-115号贤南商厦一楼', 'logo': 'https://img.meituan.net/w.h/msmerchant/a60131705ef99819e132d97cbae6240196883.jpg'}
{'name': '醉得意（旗汛口店）', 'id': 42357911, 'comments': 3399, 'price': 30.0, 'star': 3.8, 'type': '福州菜', 'tx_lng': 119.305091, 'tx_lat': 26.087328, 'area': '省立/旗汛口', 'addr': '鼓楼区井大路1号东方大厦附属楼二层（实验小学侧门对面）', 'logo': 'http://p1.meituan.net/w.h/mogu/7c98841e939bf1394ebfa7920390b0dc695640.png'}
{'name': 'DQ（王府井店）', 'id': 6078680, 'comments': 342, 'price': 26.0, 'star': 4.4, 'type': '冰淇淋', 'tx_lng': 119.305802, 'tx_lat': 26.091608, 'area': '东街口', 'addr': '鼓楼区五四路126号王府井百货B1楼B1-B20铺位', 'logo': 'https://img.meituan.net/w.h/msmerchant/00c2268e2f7238495c011cc024c9809d1011825.jpg'}
{'name': '爱丽丝花园·蒸先生', 'id': 42502652, 'comments': 1048, 'price': 95.0, 'star': 5.0, 'type': '海鲜', 'tx_lng': 119.30466, 'tx_lat': 26.10143, 'area': '五四路', 'addr': '鼓楼区鼓东街道华林路武夷大厦四楼（上水音乐餐吧）', 'logo': 'http://p1.meituan.net/w.h/mogu/4ee48498063bd76523ca705ea9e9f999212367.jpg'}
{'name': '一把鸡腿（东街店）', 'id': 165898169, 'comments': 455, 'price': 8.0, 'star': 4.5, 'type': '炸串', 'tx_lng': 119.300884, 'tx_lat': 26.086357, 'area': '乌山/冠亚广场', 'addr': '鼓楼区东街12-7闽辉大厦底商', 'logo': 'http://p1.meituan.net/w.h/deal/883ffa3966901723b4fd1a6bffa1bb8397054.jpg'}
{'name': '华丰贺氏（元帅店）', 'id': 40966813, 'comments': 660, 'price': 15.0, 'star': 3.8, 'type': '奶茶/果汁', 'tx_lng': 119.294653, 'tx_lat': 26.085632, 'area': '左海/西湖公园', 'addr': '鼓楼区杨桥东路72号元帅庙新村1幢45号', 'logo': 'http://p1.meituan.net/w.h/deal/8266d156e51de995eb32bcd108cb7216198865.jpg'}
{'name': '九龍唐港式料理', 'id': 157762263, 'comments': 837, 'price': 80.0, 'star': 3.5, 'type': '茶餐厅', 'tx_lng': 119.31482, 'tx_lat': 26.08685, 'area': '东街口', 'addr': '鼓楼区东水路18号金仕顿大酒店一楼（东大路东水路口旁）', 'logo': 'https://img.meituan.net/w.h/msmerchant/576233bc959617a9bbbba455e297b19f321291.jpg'}
{'name': '凡塔斯牛排餐厅（省府店）', 'id': 155792971, 'comments': 156, 'price': 72.0, 'star': 3.8, 'type': '牛排', 'tx_lng': 119.298692, 'tx_lat': 26.087182, 'area': '乌山/冠亚广场', 'addr': '鼓楼区八一七北路68号的福建供销大厦2楼', 'logo': 'https://img.meituan.net/w.h/msmerchant/5476d58ab037b4c822760f3384a63217978781.jpg'}
{'name': '华莱士（凤湖新城店）', 'id': 158900792, 'comments': 252, 'price': 18.0, 'star': 3.8, 'type': '汉堡', 'tx_lng': 119.276816, 'tx_lat': 26.065965, 'area': '乌山西路', 'addr': '鼓楼区洪山镇双下路37号凤湖新城-区3#一区由东往西第五间店面', 'logo': 'http://p0.meituan.net/w.h/shopmainpic/7be2efa61f03b3ec4dfd1a38a5db59b8280145.jpg'}
{'name': '印象老北京火锅', 'id': 159451343, 'comments': 322, 'price': 88.0, 'star': 3.5, 'type': '老北京火锅', 'tx_lng': 119.300113, 'tx_lat': 26.087183, 'area': '东街口', 'addr': '鼓楼区贤南路26号（贤南商厦旁）', 'logo': 'https://img.meituan.net/w.h/msmerchant/bf96e5365ff3a047fbf2951967ec6534361627.jpg'}
{'name': '芝根芝底（古田路店）', 'id': 65942646, 'comments': 118, 'price': 15.0, 'star': 4.6, 'type': '披萨', 'tx_lng': 119.31317, 'tx_lat': 26.07929, 'area': '东街口', 'addr': '鼓楼区古田路建华支巷水涧新村12座1号店', 'logo': 'http://p0.meituan.net/w.h/xianfu/def9ff1e1aba18536508e0648d86a0a7434931.jpg'}
{'name': '悦满庭', 'id': 160100869, 'comments': 1554, 'price': 150.0, 'star': 5.0, 'type': '粤菜', 'tx_lng': 119.299134, 'tx_lat': 26.107931, 'area': '鼓屏路/屏山公园', 'addr': '鼓楼区北二环中路与华屏路交汇处西南角旁（国棉永辉超市对面）', 'logo': 'https://img.meituan.net/w.h/msmerchant/c43a206c5ae746944cb2c01dbc2de61343238.jpg'}
{'name': '华莱士（达明店）', 'id': 832418, 'comments': 4500, 'price': 20.0, 'star': 3.4, 'type': '汉堡', 'tx_lng': 119.295892, 'tx_lat': 26.086494, 'area': '左海/西湖公园', 'addr': '鼓楼区达明路14号店面（近边城石锅鱼）', 'logo': 'http://p1.meituan.net/w.h/deal/__48514321__7907470.jpg'}
{'name': '阿楷·渔家小寨', 'id': 833746, 'comments': 617, 'price': 66.0, 'star': 3.6, 'type': '海鲜', 'tx_lng': 119.2957, 'tx_lat': 26.086557, 'area': '左海/西湖公园', 'addr': '鼓楼区达明路双抛桥二里（水舞功夫斜对面）', 'logo': 'http://p1.meituan.net/w.h/mogu/b20d44ffbd071780a3d9e98b989f2b0644042.jpg'}
{'name': '麦斯晨菲老香港蛋糕（东街店）', 'id': 111930349, 'comments': 2394, 'price': 19.0, 'star': 3.6, 'type': '蛋糕', 'tx_lng': 119.300877, 'tx_lat': 26.086301, 'area': '乌山/冠亚广场', 'addr': '鼓楼区东街14-10号（东街与太阳巷交叉口省儿童图书馆旁）', 'logo': 'https://img.meituan.net/w.h/msmerchant/03b5ebd85ce19ee854f779300eb768d815317.jpg'}
{'name': '小龙坎老火锅（三坊七巷店）', 'id': 160817897, 'comments': 1210, 'price': 105.0, 'star': 3.0, 'type': '川味火锅', 'tx_lng': 119.29843, 'tx_lat': 26.080525, 'area': '东街口/三坊七巷', 'addr': '鼓楼区吉庇巷72-2号（缘之园停车场）', 'logo': 'https://img.meituan.net/w.h/msmerchant/fb24ebf9e59fa963d47a9c668883b76a494289.jpg'}
{'name': '天福海鲜大酒楼', 'id': 829931, 'comments': 203, 'price': 56.0, 'star': 4.6, 'type': '福州菜', 'tx_lng': 119.30621, 'tx_lat': 26.094459, 'area': '五四路', 'addr': '鼓楼区五四路138号天福大厦四楼（近环球广场旁）', 'logo': 'http://p1.meituan.net/w.h/deal/201108/29/_0829144515.jpg'}
{'name': '小汤主（王府井店）', 'id': 159574640, 'comments': 219, 'price': 32.0, 'star': 4.0, 'type': '麻辣烫', 'tx_lng': 119.306064, 'tx_lat': 26.091496, 'area': '东街口', 'addr': '鼓楼区五四路128号王府井百货负一层', 'logo': 'https://img.meituan.net/w.h/msmerchant/5915430f3849902512d1582ae856ff5766899.png'}
{'name': '周麻婆（王府井店）', 'id': 163895486, 'comments': 51, 'price': 40.0, 'star': 3.7, 'type': '川菜', 'tx_lng': 119.305682, 'tx_lat': 26.091553, 'area': '东街口', 'addr': '鼓楼区五四路126号王府井百货6楼', 'logo': 'https://img.meituan.net/w.h/msmerchant/be76fe1962424d8b7072968086b69e43158069.jpg'}
{'name': '未来意式餐厅（三坊七巷店）', 'id': 185587090, 'comments': 18, 'price': 27.0, 'star': 4.6, 'type': '披萨', 'tx_lng': 119.300326, 'tx_lat': 26.080439, 'area': '东街口/三坊七巷', 'addr': '鼓楼区八一七北路190号闽星楼地下一层3号店（近桂枝里）', 'logo': 'http://p0.meituan.net/w.h/bbia/bcb6b709a499b819bc6b60717a38214666400.jpg'}
{'name': '驿见美式汉堡', 'id': 165484637, 'comments': 80, 'price': 31.0, 'star': 4.6, 'type': '汉堡', 'tx_lng': 119.295475, 'tx_lat': 26.089226, 'area': '左海/西湖公园', 'addr': '鼓楼区北大路315号（达明美食街鼓西入口旁）', 'logo': 'http://p0.meituan.net/w.h/mogu/066787090db4e91dbded78f87753762025269.jpg'}
{'name': '边境渔场·深海烤鱼（三坊七巷店）', 'id': 113338611, 'comments': 661, 'price': 61.0, 'star': 3.2, 'type': '烤鱼', 'tx_lng': 119.297421, 'tx_lat': 26.07958, 'area': '东街口/三坊七巷', 'addr': '鼓楼区三坊七巷澳门路1号（澳门公寓对面）', 'logo': 'http://p0.meituan.net/w.h/mogu/eb0dbd918b64538b31b9e5180d65c64e366040.jpg'}
{'name': '薯战薯决（东百中心店）', 'id': 182045479, 'comments': 81, 'price': 17.0, 'star': 5.0, 'type': '炸串', 'tx_lng': 119.298911, 'tx_lat': 26.085202, 'area': '东街口/三坊七巷', 'addr': '鼓楼区八一七北路东百中心A馆负二楼', 'logo': 'https://img.meituan.net/w.h/msmerchant/a2bb9b7565fa99bd621201d2109769f232589.jpg'}
{'name': '台湾森山仙草（西门永辉店）', 'id': 157110849, 'comments': 1008, 'price': 16.0, 'star': 4.1, 'type': '奶茶/果汁', 'tx_lng': 119.287939, 'tx_lat': 26.086718, 'area': '左海/西湖公园', 'addr': '鼓楼区西洪路西门永辉对面（湖头街8号）', 'logo': 'http://p1.meituan.net/w.h/mogu/72f06499af2ff902eb57f63906bf0e2a79994.jpg'}
{'name': '凡塔斯牛排餐厅（王府井店）', 'id': 51141793, 'comments': 1442, 'price': 74.0, 'star': 3.4, 'type': '牛排', 'tx_lng': 119.305793, 'tx_lat': 26.091526, 'area': '东街口', 'addr': '鼓楼区五四路128号王府井百货7层A4', 'logo': 'https://img.meituan.net/w.h/msmerchant/5476d58ab037b4c822760f3384a63217978781.jpg'}
{'name': '金象湾泰国餐厅（大洋晶典冠亚店）', 'id': 79455446, 'comments': 143, 'price': 104.0, 'star': 4.0, 'type': '泰国菜', 'tx_lng': 119.299893, 'tx_lat': 26.076206, 'area': '东街口/三坊七巷', 'addr': '鼓楼区八一七北路268号大洋晶典5层', 'logo': 'https://img.meituan.net/w.h/msmerchant/bb43915511d3ca631fbed2638fe0f03430743.jpg'}
{'name': '华丰贺氏（营迹店）', 'id': 1153944, 'comments': 611, 'price': 15.0, 'star': 4.2, 'type': '蛋糕', 'tx_lng': 119.303902, 'tx_lat': 26.097667, 'area': '五四路', 'addr': '鼓楼区营迹路69号恒力创富中心一层1-05店面（近省城乡规划设计研究院）', 'logo': 'http://p1.meituan.net/w.h/deal/201206/19/1_0619162455.jpg'}
{'name': '海佰汇海鲜楼', 'id': 116507802, 'comments': 5, 'price': 100.0, 'star': 3.5, 'type': '福建菜', 'tx_lng': 119.323379, 'tx_lat': 26.0803, 'area': '五一广场/古田路', 'addr': '鼓楼区福新中路紫新二巷77号', 'logo': 'http://p0.meituan.net/w.h/ugcpic/64ad43ca5508ebff6432d39be9ded8e1'}
{'name': '杨太有礼（蒙古营店）', 'id': 29048, 'comments': 1357, 'price': 31.0, 'star': 4.0, 'type': '蛋糕', 'tx_lng': 119.30829, 'tx_lat': 26.08584, 'area': '省立/旗汛口', 'addr': '鼓楼区福州五一北路28号（近蒙古营车站）', 'logo': 'http://p1.meituan.net/w.h/mogu/dfdd97e791a93aeea6784f7331373267111351.jpg'}
{'name': '韩娘韩国料理（通湖路店）', 'id': 52387236, 'comments': 1250, 'price': 26.0, 'star': 4.1, 'type': '韩国菜', 'tx_lng': 119.291667, 'tx_lat': 26.086921, 'area': '左海/西湖公园', 'addr': '鼓楼区通湖路119号（十八中正门口对面）', 'logo': 'https://img.meituan.net/w.h/msmerchant/e18715eb6358975c76f952cda25cd78a102030.jpg'}
{'name': '腊一惊（省府店）', 'id': 4275294, 'comments': 3441, 'price': 31.0, 'star': 4.2, 'type': '熟食', 'tx_lng': 119.297, 'tx_lat': 26.087153, 'area': '左海/西湖公园', 'addr': '鼓楼区省府路74号金皇公寓1#楼1层20号店面（三坊七巷斜对面，永辉旁）', 'logo': 'http://p1.meituan.net/w.h/mogu/87d8c17f95e2ab8bbdd8adb859eb454430716.jpg'}
{'name': '中瑞餐厅', 'id': 178895239, 'comments': 38, 'price': 78.0, 'star': 5.0, 'type': '咖啡厅', 'tx_lng': 119.299073, 'tx_lat': 26.082621, 'area': '东街口/三坊七巷', 'addr': '鼓楼区安民巷58号中瑞剧坊二楼', 'logo': 'http://p1.meituan.net/w.h/mogu/c4e31f04b9671cc5d3f4cb94d05af4b930900.jpg'}
{'name': '大丰收鱼庄（东街店）', 'id': 96603572, 'comments': 969, 'price': 78.0, 'star': 3.5, 'type': '鱼火锅', 'tx_lng': 119.300329, 'tx_lat': 26.084294, 'area': '乌山/冠亚广场', 'addr': '鼓楼区东街口八一七北路大洋百货9楼', 'logo': 'http://p1.meituan.net/w.h/mogu/0bccc8f844e1f70198d966001e4e1a8497224.jpg'}
{'name': '令狐冲窑烤活鱼（长冠城明星店）', 'id': 106561757, 'comments': 491, 'price': 61.0, 'star': 5.0, 'type': '烤鱼', 'tx_lng': 119.293122, 'tx_lat': 26.108073, 'area': '省体/湖前', 'addr': '鼓楼区北二环西路78号长冠城78号长冠城公交车站', 'logo': 'http://p1.meituan.net/w.h/bbia/895af5199eb3b1089209e5688c44475c969215.png'}
{'name': '6SU°六感体验餐厅（三坊七巷店）', 'id': 109845313, 'comments': 43, 'price': 255.0, 'star': 5.0, 'type': '创意菜', 'tx_lng': 119.29478, 'tx_lat': 26.079508, 'area': '东街口/三坊七巷', 'addr': '鼓楼区光禄坊66号', 'logo': 'https://img.meituan.net/w.h/msmerchant/2770c6bc93b474abcb2c9de3610a68f62154496.jpg'}
{'name': '刘福记北京烤鸭（六一北路店）', 'id': 169183311, 'comments': 37, 'price': 44.0, 'star': 3.8, 'type': '烤鸭', 'tx_lng': 119.315297, 'tx_lat': 26.091215, 'area': '鼓楼区', 'addr': '鼓楼区六一北路302号（大龙燚火锅斜对面）', 'logo': 'https://img.meituan.net/w.h/msmerchant/211d2a9f6cb55ed79f316aaf108f4f0a4690417.jpg'}
{'name': '鱼你在一起酸菜鱼@米饭（旗汛口店）', 'id': 165144258, 'comments': 141, 'price': 23.0, 'star': 4.2, 'type': '酸菜鱼', 'tx_lng': 119.304231, 'tx_lat': 26.08622, 'area': '东街口/三坊七巷', 'addr': '鼓楼区东街57号09店铺', 'logo': 'http://p0.meituan.net/w.h/shopdiy/7e18de9a0591f4042ed141126b8e472d29708.jpg'}
{'name': '流川风（东百店）', 'id': 179404767, 'comments': 74, 'price': 23.0, 'star': 3.6, 'type': '小吃快餐', 'tx_lng': 119.299072, 'tx_lat': 26.085039, 'area': '东街口/三坊七巷', 'addr': '鼓楼区南街八一七北路88号', 'logo': 'https://img.meituan.net/w.h/msmerchant/5c9186c23a2f3e89186e0f08958ecd4718369.jpg'}
{'name': '衣川料理', 'id': 164432568, 'comments': 431, 'price': 53.0, 'star': 4.5, 'type': '日本菜', 'tx_lng': 119.311919, 'tx_lat': 26.077426, 'area': '正祥中心', 'addr': '鼓楼区古田支路燕桥温泉苑旁', 'logo': 'https://img.meituan.net/w.h/msmerchant/e8a0828ac5ce44e5a92c66eea6daa834126325.jpg'}
{'name': '安德鲁森（东泰路店）', 'id': 1875403, 'comments': 163, 'price': 15.0, 'star': 3.9, 'type': '蛋糕', 'tx_lng': 119.302825, 'tx_lat': 26.083877, 'area': '乌山/冠亚广场', 'addr': '鼓楼区东泰路128号碧玉花园25号店面（近织缎巷）', 'logo': 'http://p0.meituan.net/w.h/mogu/38814d17424817e932f851bff574981536264.jpg'}
{'name': '朱紫坊蹄膀', 'id': 1875241, 'comments': 266, 'price': 40.0, 'star': 4.2, 'type': '福州菜', 'tx_lng': 119.29498, 'tx_lat': 26.086015, 'area': '左海/西湖公园', 'addr': '鼓楼区杨桥路双抛桥一里七座38号（近三坊七巷）', 'logo': 'http://p0.meituan.net/w.h/deal/4d50215e8dd0cb0e861da3b04bd9e2ae114914.jpg'}
{'name': '华莱士（美景良城店）', 'id': 169049795, 'comments': 33, 'price': 18.0, 'star': 3.8, 'type': '汉堡', 'tx_lng': 119.283531, 'tx_lat': 26.072416, 'area': '乌山西路', 'addr': '鼓楼区洪山镇福屿路208号店面', 'logo': 'http://p1.meituan.net/w.h/deal/9052d8e60378a8963425eda65075664373917.jpg'}
{'name': 'OG茶嘟', 'id': 179709224, 'comments': 55, 'price': 10.0, 'star': 5.0, 'type': '奶茶/果汁', 'tx_lng': 119.31482, 'tx_lat': 26.082455, 'area': '东街口', 'addr': '鼓楼区东水路87-1', 'logo': 'http://p0.meituan.net/w.h/mogu/db13d8e9be665ade5cc2e310eef867e047606.jpg'}
{'name': '庞听者音乐餐吧', 'id': 187412274, 'comments': 1, 'price': 66.0, 'star': 3.5, 'type': '其他美食', 'tx_lng': 119.318535, 'tx_lat': 26.075203, 'area': '五一广场/古田路', 'addr': '鼓楼区六一中路28号佳盛广场', 'logo': 'http://p0.meituan.net/w.h/bbia/18850be66a47728c07b3ac4a6a89d8d336827.jpg'}
{'name': '老北京卤肉卷（福新路店）', 'id': 177833679, 'comments': 137, 'price': 11.0, 'star': 4.4, 'type': '鱼丸', 'tx_lng': 119.313116, 'tx_lat': 26.080296, 'area': '东街口', 'addr': '鼓楼区福新路103号大华公寓底商', 'logo': 'http://p1.meituan.net/w.h/mogu/33ca2822d329e02dcba925774043785e156821.jpg'}
{'name': '周麻婆（东街口店）', 'id': 163015130, 'comments': 25, 'price': 36.0, 'star': 3.5, 'type': '川菜', 'tx_lng': 119.300323, 'tx_lat': 26.086146, 'area': '乌山/冠亚广场', 'addr': '鼓楼区东街街道东街41号2-3楼店面', 'logo': 'http://p0.meituan.net/w.h/mogu/9b6a107f407b09c4ee839b234d40f4d698817.jpg'}
{'name': '弥茶（三坊七巷店）', 'id': 158645664, 'comments': 249, 'price': 17.0, 'star': 5.0, 'type': '奶茶/果汁', 'tx_lng': 119.299567, 'tx_lat': 26.080661, 'area': '鼓楼区', 'addr': '鼓楼区吉庇巷35号', 'logo': 'http://p1.meituan.net/w.h/mogu/f70bbee6da9cc0bf3022a9ea2e5f1e9f68825.jpg'}
{'name': '牛就是牛 潮汕牛肉火锅', 'id': 158863277, 'comments': 31, 'price': 70.0, 'star': 4.4, 'type': '牛肉火锅', 'tx_lng': 119.296112, 'tx_lat': 26.077641, 'area': '东街口/三坊七巷', 'addr': '鼓楼区道山路217号则徐小学旁边', 'logo': 'http://p1.meituan.net/w.h/mogu/d1a7c98b8c3e4cbbd093f5fc9ceb4c1a132186.jpg'}
{'name': '金香牛肉面', 'id': 5302483, 'comments': 83, 'price': 16.0, 'star': 5.0, 'type': '面条', 'tx_lng': 119.30089, 'tx_lat': 26.08719, 'area': '乌山/冠亚广场', 'addr': '鼓楼区贤南路23号', 'logo': 'http://p1.meituan.net/w.h/poi/485fe78723256ab2e862b7705f868f2d90112.jpg'}
{'name': '向阳坊（福屿店）', 'id': 40536477, 'comments': 205, 'price': 10.0, 'star': 3.5, 'type': '蛋糕', 'tx_lng': 119.28335, 'tx_lat': 26.07584, 'area': '黎明/小柳市场', 'addr': '鼓楼区福屿福二路18号新园新村A区第二店面', 'logo': 'http://p0.meituan.net/w.h/mogu/e2c1bdd9600c499ef0c5168572d4e25b86943.jpg'}
{'name': '好自在素菜馆', 'id': 1875014, 'comments': 77, 'price': 74.0, 'star': 4.7, 'type': '素食', 'tx_lng': 119.305603, 'tx_lat': 26.077084, 'area': '五一广场/古田路', 'addr': '鼓楼区于山路9号定光寺内（于山宾馆旁）', 'logo': 'http://p0.meituan.net/w.h/dealwatera/6960819b5e8c88f670906f3f3dcd5d97113529.jpg'}
{'name': '蛙舍·海鲜牛蛙（王府井店）', 'id': 158831832, 'comments': 2967, 'price': 77.0, 'star': 3.4, 'type': '干锅/香锅', 'tx_lng': 119.305726, 'tx_lat': 26.09162, 'area': '东街口', 'addr': '鼓楼区五四路128号王府井百货负一楼', 'logo': 'http://p1.meituan.net/w.h/bbia/026397be561e9a039522a757dd7840ba1639445.jpg'}
{'name': '海港顺德味道', 'id': 96825896, 'comments': 107, 'price': 75.0, 'star': 4.3, 'type': '顺德菜', 'tx_lng': 119.306856, 'tx_lat': 26.09397, 'area': '温泉公园/福州广场', 'addr': '鼓楼区五四路89号置地广场一楼', 'logo': 'https://img.meituan.net/w.h/msmerchant/b36e916eb023b7cc6255def1f932c8a9339416.jpg'}
{'name': '1Cake壹刻蛋糕（大洋晶典植物梦工场店）', 'id': 160338299, 'comments': 29, 'price': 58.0, 'star': 3.6, 'type': '蛋糕', 'tx_lng': 119.299998, 'tx_lat': 26.076274, 'area': '东街口/三坊七巷', 'addr': '鼓楼区八一七北路268号大洋晶典-1层', 'logo': 'https://img.meituan.net/w.h/msmerchant/8db0df94711ed33b21cd8c93573ce9e268392.jpg'}
{'name': '阳澄湖渔夫大闸蟹（福新店）', 'id': 5723640, 'comments': 20, 'price': 80.0, 'star': 4.2, 'type': '大闸蟹', 'tx_lng': 119.324129, 'tx_lat': 26.077738, 'area': '五一广场/古田路', 'addr': '鼓楼区福新中路73号2号楼店面', 'logo': 'http://p0.meituan.net/w.h/deal/fd940f0ef22bada722fc6c7ac36be05086025.jpg'}
{'name': '左公宴', 'id': 162690741, 'comments': 332, 'price': 143.0, 'star': 3.8, 'type': '湘菜', 'tx_lng': 119.299636, 'tx_lat': 26.082811, 'area': '鼓楼区', 'addr': '鼓楼区安民巷62号（安民巷与八一七路交汇巷口处）', 'logo': 'https://img.meituan.net/w.h/msmerchant/39fc332356b515566cc7e4f3a252a88660820.jpg'}
{'name': '旋转小火锅', 'id': 159167307, 'comments': 32, 'price': 25.0, 'star': 4.0, 'type': '小火锅', 'tx_lng': 119.300782, 'tx_lat': 26.082444, 'area': '乌山/冠亚广场', 'addr': '鼓楼区织缎巷16号（八一七北路与织缎巷交口东行50米路北）', 'logo': 'http://p0.meituan.net/w.h/xianfu/4f577641c44ed4b5c8fbc74486749ff632768.jpg'}
{'name': '榕城大酒店中餐厅', 'id': 90077208, 'comments': 643, 'price': 80.0, 'star': 3.9, 'type': '福州菜', 'tx_lng': 119.30492, 'tx_lat': 26.079996, 'area': '津泰路/协和医院', 'addr': '鼓楼区花园路21号（协合医院旁）', 'logo': 'http://p0.meituan.net/w.h/deal/__31972060__4123821.jpg'}
{'name': '聚春园大酒店（东街口总店）', 'id': 829843, 'comments': 1373, 'price': 190.0, 'star': 4.1, 'type': '综合自助', 'tx_lng': 119.299619, 'tx_lat': 26.086521, 'area': '乌山/冠亚广场', 'addr': '鼓楼区东街2号，海峡影城对面（肯德基，新华都旁）', 'logo': 'https://img.meituan.net/w.h/msmerchant/28c08346e774b8055205b1355626b3b0477900.jpg'}
{'name': '在茶里（仙塔街店）', 'id': 185608260, 'comments': 9, 'price': 16.0, 'star': 4.0, 'type': '奶茶/果汁', 'tx_lng': 119.306294, 'tx_lat': 26.082447, 'area': '津泰路/协和医院', 'addr': '鼓楼区仙塔街157号', 'logo': 'https://img.meituan.net/w.h/msmerchant/358de970069384f7a0085cf8b230d2e811163.jpg'}
{'name': '华莱士（井大店）', 'id': 163896273, 'comments': 38, 'price': 18.0, 'star': 3.6, 'type': '汉堡', 'tx_lng': 119.30388, 'tx_lat': 26.091098, 'area': '东街口', 'addr': '鼓楼区鼓东街道井大路157号都市丽景05号店面', 'logo': 'https://img.meituan.net/w.h/msmerchant/6c1aba8ed091f1d3f8720f88a925fac1147466.jpg'}
{'name': '星秀场酒吧', 'id': 74366387, 'comments': 43, 'price': 0.0, 'star': 5.0, 'type': '夜店', 'tx_lng': 119.31112, 'tx_lat': 26.07347, 'area': '五一广场/古田路', 'addr': '鼓楼区五一中路32号元洪大厦3楼（五一广场旁）', 'logo': 'http://p1.meituan.net/w.h/merchantpic/a9a4e999ca1cc7b712fe21ba1b3c2c0a103584.jpg'}
{'name': '小韩屋·石器食代', 'id': 169311467, 'comments': 193, 'price': 29.0, 'star': 4.9, 'type': '韩国菜', 'tx_lng': 119.302302, 'tx_lat': 26.096995, 'area': '五四路', 'addr': '鼓楼区观风亭街99号（七海花园西门门口）', 'logo': 'https://img.meituan.net/w.h/msmerchant/7cb6692eee0e512ffb42286fea5e65041550958.jpg'}
{'name': '伊藤屋日本料理', 'id': 830611, 'comments': 1338, 'price': 168.0, 'star': 4.0, 'type': '日本菜', 'tx_lng': 119.312344, 'tx_lat': 26.095163, 'area': '温泉公园/福州广场', 'addr': '鼓楼区湖东路288号水调歌头5号别墅（省图书馆对面）', 'logo': 'https://img.meituan.net/w.h/msmerchant/13b112c4638afc63b9d6f4223b40e47a47279.jpg'}
{'name': '传承鸭面线（大洋百货店）', 'id': 162983719, 'comments': 1681, 'price': 28.0, 'star': 4.1, 'type': '台湾菜', 'tx_lng': 119.300392, 'tx_lat': 26.084249, 'area': '乌山/冠亚广场', 'addr': '鼓楼区八一七北路133号中城大洋百货B1-27', 'logo': 'http://p0.meituan.net/w.h/mogu/493952aa39a58d0c2ae1436f60865cf7175365.jpg'}
{'name': '聚福园', 'id': 829820, 'comments': 53, 'price': 14.0, 'star': 4.6, 'type': '福州菜', 'tx_lng': 119.30056, 'tx_lat': 26.075629, 'area': '东街口/三坊七巷', 'addr': '鼓楼区乌山路35号茂泰大楼10店A间', 'logo': 'http://p0.meituan.net/w.h/deal/__35630078__1562885.jpg'}
{'name': '聚春园大酒店自助餐厅', 'id': 50281308, 'comments': 123, 'price': 67.0, 'star': 3.4, 'type': '综合自助', 'tx_lng': 119.299609, 'tx_lat': 26.086692, 'area': '乌山/冠亚广场', 'addr': '鼓楼区东街口2号（聚春园大酒店内）', 'logo': 'http://p1.meituan.net/w.h/mogu/9f5ee07e8902d503c90bb96fb8b3232528696.jpg'}
{'name': '华莱士（国色天香店）', 'id': 156743473, 'comments': 280, 'price': 18.0, 'star': 4.2, 'type': '汉堡', 'tx_lng': 119.30679, 'tx_lat': 26.10932, 'area': '省体/湖前', 'addr': '鼓楼区五四路273-5', 'logo': 'http://p0.meituan.net/w.h/deal/0072f08f6684cbdcc446b43687139a47108148.jpg'}
{'name': '超浔黑鸭（东街店）', 'id': 96085576, 'comments': 92, 'price': 20.0, 'star': 4.9, 'type': '卤味', 'tx_lng': 119.300598, 'tx_lat': 26.086228, 'area': '乌山/冠亚广场', 'addr': '鼓楼区东街口14号（海峡电影院正对面）', 'logo': 'http://p1.meituan.net/w.h/mogu/a631284013def98f8d0043fc9a5f08d6101895.jpg'}
{'name': '大喜牛潮汕牛肉火锅（五四营迹店）', 'id': 85825364, 'comments': 281, 'price': 96.0, 'star': 3.6, 'type': '牛肉火锅', 'tx_lng': 119.304011, 'tx_lat': 26.09766, 'area': '五四路', 'addr': '鼓楼区鼓东街道营迹路恒力创富中心', 'logo': 'http://p1.meituan.net/w.h/mogu/90e57b738d49b38ae9f77b53420a464c352623.jpg'}
{'name': '羅家老长沙臭豆腐（达明路店）', 'id': 169122675, 'comments': 303, 'price': 11.0, 'star': 4.7, 'type': '臭豆腐', 'tx_lng': 119.295942, 'tx_lat': 26.086521, 'area': '左海/西湖公园', 'addr': '鼓楼区达明路28号', 'logo': 'https://img.meituan.net/w.h/msmerchant/2edfc1bddbf286d1d3a3cddca646752c687140.jpg'}
{'name': '蛙舍.海鲜牛蛙（东百中心店）', 'id': 163497754, 'comments': 1906, 'price': 79.0, 'star': 3.1, 'type': '干锅/香锅', 'tx_lng': 119.298931, 'tx_lat': 26.085365, 'area': '乌山/冠亚广场', 'addr': '鼓楼区八一七北路东百10楼', 'logo': 'http://p1.meituan.net/w.h/bbia/026397be561e9a039522a757dd7840ba1639445.jpg'}
{'name': '铜锣湾（三坊七巷店）', 'id': 52534834, 'comments': 323, 'price': 108.0, 'star': 4.1, 'type': '粤菜', 'tx_lng': 119.298133, 'tx_lat': 26.084441, 'area': '东街口/三坊七巷', 'addr': '鼓楼区南后街塔巷6号（三坊七塔巷口靠近东百停车场，南街塔巷路口往前走20米）', 'logo': 'http://p1.meituan.net/w.h/deal/aedfdd0aec40f08d37150bad8fe90dad46033.jpg'}
{'name': '向阳坊（通湖店）', 'id': 2425468, 'comments': 161, 'price': 10.0, 'star': 3.8, 'type': '蛋糕', 'tx_lng': 119.291839, 'tx_lat': 26.086682, 'area': '左海/西湖公园', 'addr': '鼓楼区通湖路129号航龙花园6-7号楼连体1楼18号店面（省社保大夏附近）', 'logo': 'http://p0.meituan.net/w.h/mogu/e2c1bdd9600c499ef0c5168572d4e25b86943.jpg'}
{'name': '古千川艺厕所串串香（观风亭店）', 'id': 96599046, 'comments': 1041, 'price': 35.0, 'star': 3.7, 'type': '串串香', 'tx_lng': 119.302744, 'tx_lat': 26.095157, 'area': '五四路', 'addr': '鼓楼区观凤亭街23-5号观风亭新苑2#4连接体1层', 'logo': 'http://p1.meituan.net/w.h/mogu/ed87d432397ea930bc77c5fe1b4ac61060637.jpg'}
{'name': '林记沙茶面', 'id': 5613221, 'comments': 10, 'price': 19.0, 'star': 4.0, 'type': '沙茶面', 'tx_lng': 119.302943, 'tx_lat': 26.083224, 'area': '鼓楼区', 'addr': '鼓楼区东泰路170号碧玉花园', 'logo': 'http://p0.meituan.net/w.h/mogu/92e74c723bf37c9b088ac897ee07405b656697.png'}
{'name': '東來面倉（王府井店）', 'id': 162896600, 'comments': 124, 'price': 24.0, 'star': 4.0, 'type': '面条', 'tx_lng': 119.306142, 'tx_lat': 26.09142, 'area': '东街口', 'addr': '鼓楼区五四路128号王府井百货负一层B032', 'logo': 'https://img.meituan.net/w.h/msmerchant/0bbed56c5c16bcda7afb4a817ef2c3ac152402.jpg'}
{'name': '贯一台湾牛肉面（五四店）', 'id': 1876488, 'comments': 4124, 'price': 30.0, 'star': 4.0, 'type': '面条', 'tx_lng': 119.305858, 'tx_lat': 26.097855, 'area': '五四路', 'addr': '鼓楼区五四路212号福州大戏院北侧（营迹路5号）', 'logo': 'https://img.meituan.net/w.h/msmerchant/adecf7d205d2e0e2a782e4356c4ca01622899.jpg'}
{'name': '闽小馆（王府井店）', 'id': 101754564, 'comments': 88, 'price': 46.0, 'star': 4.6, 'type': '福州菜', 'tx_lng': 119.305701, 'tx_lat': 26.091566, 'area': '东街口', 'addr': '鼓楼区五四路王府井百货负一楼', 'logo': 'https://img.meituan.net/w.h/msmerchant/c8afd816497108039c02cff5ed954067538247.jpg'}
{'name': '食鼎记私房菜（吉庇巷店）', 'id': 829758, 'comments': 4025, 'price': 66.0, 'star': 3.4, 'type': '私房菜', 'tx_lng': 119.299336, 'tx_lat': 26.080529, 'area': '东街口/三坊七巷', 'addr': '鼓楼区南后街吉庇巷61-1号（安泰楼酒家隔壁）', 'logo': 'https://img.meituan.net/w.h/msmerchant/2a9c8c1eec1991614c08f16d437bd03f97989.jpg'}
{'name': '朝麻朝辣（贤南路店）', 'id': 164629073, 'comments': 92, 'price': 24.0, 'star': 4.5, 'type': '麻辣烫', 'tx_lng': 119.30066, 'tx_lat': 26.087379, 'area': '乌山/冠亚广场', 'addr': '鼓楼区贤南路36-2号', 'logo': 'https://img.meituan.net/w.h/msmerchant/2cf4ab1e8cbf14e7f6cca9017e051dba8303138.jpg'}
{'name': '向阳坊（鼓西店）', 'id': 1875964, 'comments': 59, 'price': 10.0, 'star': 4.0, 'type': '蛋糕', 'tx_lng': 119.293228, 'tx_lat': 26.088835, 'area': '左海/西湖公园', 'addr': '鼓楼区古西路216号卧湖新苑华旺楼楼下2号店面（通湖路与元帅路之间）', 'logo': 'http://p0.meituan.net/w.h/mogu/e2c1bdd9600c499ef0c5168572d4e25b86943.jpg'}
{'name': '韩娘韩国料理（五一北路店）', 'id': 183959681, 'comments': 9, 'price': 26.0, 'star': 3.5, 'type': '韩国菜', 'tx_lng': 119.309669, 'tx_lat': 26.08024, 'area': '东街口', 'addr': '鼓楼区五一北路142号（鼓楼医院正对面）', 'logo': 'https://img.meituan.net/w.h/msmerchant/bdbe3ac15dcc40b230a7e34f33efe698146627.jpg'}
{'name': '蒙自源米线（东街店）', 'id': 177444464, 'comments': 139, 'price': 23.0, 'star': 3.6, 'type': '过桥米线', 'tx_lng': 119.304366, 'tx_lat': 26.086623, 'area': '省立/旗汛口', 'addr': '鼓楼区东街92-6号', 'logo': 'http://p0.meituan.net/w.h/mogu/d4823851526e3c32baad59beb78273a9370906.jpg'}
{'name': '玛格利塔（通湖店）', 'id': 70348071, 'comments': 322, 'price': 23.0, 'star': 4.2, 'type': '披萨', 'tx_lng': 119.290895, 'tx_lat': 26.088057, 'area': '左海/西湖公园', 'addr': '鼓楼区鼓西街道华湖花园1座26#店面', 'logo': 'http://p1.meituan.net/w.h/mogu/8cd9928448b72ce5c59fe21e47943c1662130.jpg'}
{'name': '安德鲁森（福屿店）', 'id': 1875771, 'comments': 33, 'price': 12.0, 'star': 4.8, 'type': '蛋糕', 'tx_lng': 119.283629, 'tx_lat': 26.075865, 'area': '黎明/小柳市场', 'addr': '鼓楼区新园新村A区底楼连接体4号店面', 'logo': 'http://p1.meituan.net/w.h/deal/__36921976__7197501.jpg'}
{'name': '爱丽丝的偏爱（王府井店）', 'id': 156641144, 'comments': 673, 'price': 58.0, 'star': 4.6, 'type': '西餐', 'tx_lng': 119.305763, 'tx_lat': 26.091579, 'area': '东街口', 'addr': '鼓楼区五四路128号王府井百货负一楼（DQ冰淇淋斜对面）', 'logo': 'https://img.meituan.net/w.h/msmerchant/8d71183274c4caeb3f9d39999a206540142163.jpg'}
{'name': '鲜丰水果（东大店）', 'id': 77309960, 'comments': 1, 'price': 25.0, 'star': 3.9, 'type': '水果', 'tx_lng': 119.316154, 'tx_lat': 26.087599, 'area': '东街口', 'addr': '鼓楼区东大路251-1 号汇通商厦1层13店面', 'logo': 'http://p0.meituan.net/w.h/scarlett/1e9c3bc30a688b063c0fc0cda615154112408.jpg'}
{'name': '必胜客（五四店）', 'id': 832673, 'comments': 0, 'price': 62.0, 'star': 4.0, 'type': '披萨', 'tx_lng': 119.306198, 'tx_lat': 26.096077, 'area': '五四路', 'addr': '鼓楼区五四路162号华福广场南楼一,2楼（新华都超市）', 'logo': 'https://img.meituan.net/w.h/msmerchant/c841b54d6558a46a67087aa0abca23d52993992.jpg'}
{'name': '元兆寿司（鼓楼店）', 'id': 4130156, 'comments': 2538, 'price': 36.0, 'star': 4.7, 'type': '日式寿司', 'tx_lng': 119.30215, 'tx_lat': 26.0963, 'area': '五四路', 'addr': '鼓楼区观凤亭街50-1号', 'logo': 'http://p0.meituan.net/w.h/shopmainpic/b637ec3510c13d1cc3fea65fb29e67bf35824.jpg'}
{'name': '超级大叔', 'id': 175143311, 'comments': 66, 'price': 6.0, 'star': 5.0, 'type': '快餐', 'tx_lng': 119.294375, 'tx_lat': 26.089625, 'area': '左海/西湖公园', 'addr': '鼓楼区鼓西街道北大路266号旧米仓天怡花园1座一层51号店面（教堂旁边小区里面20米）', 'logo': 'http://p0.meituan.net/w.h/waimaipoi/f6001f9dd628285084af89213417a2ef178796.jpg'}
